[
  {
    "name": "Trail_923170497",
    "lat": 46.5110264,
    "lon": -87.6571776,
    "osm_id": 923170497,
    "osm_type": "way",
    "score": 0.9219893217086792,
    "pixel_coords": [
      58,
      161
    ]
  },
  {
    "name": "Trail_1260752430",
    "lat": 46.5119212,
    "lon": -87.6567978,
    "osm_id": 1260752430,
    "osm_type": "way",
    "score": 0.9219893217086792,
    "pixel_coords": [
      58,
      161
    ]
  },
  {
    "name": "Trail_1260752432",
    "lat": 46.5120931,
    "lon": -87.6563659,
    "osm_id": 1260752432,
    "osm_type": "way",
    "score": 0.9219893217086792,
    "pixel_coords": [
      58,
      161
    ]
  },
  {
    "name": "Teal Lake Trail",
    "lat": 46.5118735,
    "lon": -87.6537766,
    "osm_id": 12502528,
    "osm_type": "relation",
    "score": 0.9219893217086792,
    "pixel_coords": [
      58,
      161
    ]
  },
  {
    "name": "Fen Lake Ski Trail",
    "lat": 45.441654,
    "lon": -78.8190253,
    "osm_id": 1150326568,
    "osm_type": "way",
    "score": 0.9218875169754028,
    "pixel_coords": [
      187,
      1221
    ]
  },
  {
    "name": "Fen Lake Ski Trail - Finlayson Loop",
    "lat": 45.4418027,
    "lon": -78.819142,
    "osm_id": 1150326556,
    "osm_type": "way",
    "score": 0.9217642545700073,
    "pixel_coords": [
      186,
      1221
    ]
  },
  {
    "name": "Fen Lake Ski Trail - Heron Loop",
    "lat": 45.4441635,
    "lon": -78.8175568,
    "osm_id": 1150326565,
    "osm_type": "way",
    "score": 0.9217642545700073,
    "pixel_coords": [
      186,
      1221
    ]
  },
  {
    "name": "Connector Trails",
    "lat": 46.4880112,
    "lon": -87.6233751,
    "osm_id": 12409330,
    "osm_type": "relation",
    "score": 0.9215153455734253,
    "pixel_coords": [
      61,
      165
    ]
  },
  {
    "name": "Fen Lake Ski Trail - Ridge Trail",
    "lat": 45.4510329,
    "lon": -78.8008192,
    "osm_id": 1150326564,
    "osm_type": "way",
    "score": 0.9214925765991211,
    "pixel_coords": [
      185,
      1223
    ]
  },
  {
    "name": "Minnesing Trail - Timber Slide",
    "lat": 45.570713,
    "lon": -78.603234,
    "osm_id": 283328815,
    "osm_type": "way",
    "score": 0.9214587807655334,
    "pixel_coords": [
      171,
      1247
    ]
  },
  {
    "name": "Fen Lake Ski Trail - Loggers Run",
    "lat": 45.4455433,
    "lon": -78.7907025,
    "osm_id": 1150326566,
    "osm_type": "way",
    "score": 0.921398401260376,
    "pixel_coords": [
      186,
      1225
    ]
  },
  {
    "name": "Minnesing Trail - Sugar Bush Run",
    "lat": 45.5632585,
    "lon": -78.6055505,
    "osm_id": 41283870,
    "osm_type": "way",
    "score": 0.9213061928749084,
    "pixel_coords": [
      172,
      1247
    ]
  },
  {
    "name": "Suicide Bowl",
    "lat": 46.4819756,
    "lon": -87.6268137,
    "osm_id": 914166552,
    "osm_type": "way",
    "score": 0.9212544560432434,
    "pixel_coords": [
      62,
      164
    ]
  },
  {
    "name": "Fen Lake Ski Trail - Gateway Creek Trail",
    "lat": 45.4380519,
    "lon": -78.8012839,
    "osm_id": 1150326561,
    "osm_type": "way",
    "score": 0.9212400913238525,
    "pixel_coords": [
      187,
      1223
    ]
  },
  {
    "name": "Ridgeline Loop",
    "lat": 46.8142276,
    "lon": -87.7799946,
    "osm_id": 867600123,
    "osm_type": "way",
    "score": 0.9212028980255127,
    "pixel_coords": [
      22,
      146
    ]
  },
  {
    "name": "Noquemanon Trail Network Big Bay Pathway",
    "lat": 46.815815,
    "lon": -87.7621953,
    "osm_id": 11842355,
    "osm_type": "relation",
    "score": 0.9211047291755676,
    "pixel_coords": [
      22,
      148
    ]
  },
  {
    "name": "Fen Lake Ski Trail - Cabin Trail",
    "lat": 45.4406782,
    "lon": -78.7859038,
    "osm_id": 1150326562,
    "osm_type": "way",
    "score": 0.9210126399993896,
    "pixel_coords": [
      187,
      1225
    ]
  },
  {
    "name": "Leaf Lake Ski Trail",
    "lat": 45.5488301,
    "lon": -78.2884776,
    "osm_id": 1034532035,
    "osm_type": "way",
    "score": 0.9210113883018494,
    "pixel_coords": [
      174,
      1285
    ]
  },
  {
    "name": "Negaunee Township Community Center Trail",
    "lat": 46.5263115,
    "lon": -87.5453047,
    "osm_id": 1173837615,
    "osm_type": "way",
    "score": 0.9209346771240234,
    "pixel_coords": [
      56,
      174
    ]
  },
  {
    "name": "Minnesing Trail - Polly's Pitch",
    "lat": 45.5896862,
    "lon": -78.6052542,
    "osm_id": 74112958,
    "osm_type": "way",
    "score": 0.9209021329879761,
    "pixel_coords": [
      169,
      1247
    ]
  },
  {
    "name": "Bear Mountain Loop",
    "lat": 46.8174323,
    "lon": -87.7732099,
    "osm_id": 867600124,
    "osm_type": "way",
    "score": 0.9206745624542236,
    "pixel_coords": [
      21,
      147
    ]
  },
  {
    "name": "Mead Bypass",
    "lat": 46.5957358,
    "lon": -87.5726196,
    "osm_id": 822544939,
    "osm_type": "way",
    "score": 0.9205443859100342,
    "pixel_coords": [
      48,
      171
    ]
  },
  {
    "name": "Noquemanon Trail",
    "lat": 46.5986468,
    "lon": -87.5452889,
    "osm_id": 17878371,
    "osm_type": "way",
    "score": 0.9205281138420105,
    "pixel_coords": [
      48,
      174
    ]
  },
  {
    "name": "Meditation Loop",
    "lat": 46.8200844,
    "lon": -87.7596554,
    "osm_id": 867600125,
    "osm_type": "way",
    "score": 0.9203802943229675,
    "pixel_coords": [
      21,
      148
    ]
  },
  {
    "name": "Deer Lake Trail",
    "lat": 46.5188904,
    "lon": -87.6573585,
    "osm_id": 610021540,
    "osm_type": "way",
    "score": 0.9202315807342529,
    "pixel_coords": [
      57,
      161
    ]
  },
  {
    "name": "Olympic Trail",
    "lat": 46.5169072,
    "lon": -87.6571876,
    "osm_id": 886710617,
    "osm_type": "way",
    "score": 0.9202315807342529,
    "pixel_coords": [
      57,
      161
    ]
  },
  {
    "name": "Hidden Grin Loop",
    "lat": 46.8126095,
    "lon": -87.7457039,
    "osm_id": 867600126,
    "osm_type": "way",
    "score": 0.9202151894569397,
    "pixel_coords": [
      22,
      150
    ]
  },
  {
    "name": "Trail_922907797",
    "lat": 46.6262791,
    "lon": -81.4678144,
    "osm_id": 922907797,
    "osm_type": "way",
    "score": 0.9198387861251831,
    "pixel_coords": [
      44,
      903
    ]
  },
  {
    "name": "Mukwa",
    "lat": 46.5968191,
    "lon": -87.5104996,
    "osm_id": 771484071,
    "osm_type": "way",
    "score": 0.919835090637207,
    "pixel_coords": [
      48,
      178
    ]
  },
  {
    "name": "Animoosh to Noque 13.5K",
    "lat": 46.5989034,
    "lon": -87.5153639,
    "osm_id": 889264487,
    "osm_type": "way",
    "score": 0.919835090637207,
    "pixel_coords": [
      48,
      178
    ]
  },
  {
    "name": "Trail_1021562253",
    "lat": 46.5777745,
    "lon": -84.3722595,
    "osm_id": 1021562253,
    "osm_type": "way",
    "score": 0.9197683334350586,
    "pixel_coords": [
      50,
      555
    ]
  },
  {
    "name": "Crimspon Loop Trail",
    "lat": 46.5786649,
    "lon": -84.3745384,
    "osm_id": 1021562255,
    "osm_type": "way",
    "score": 0.9197683334350586,
    "pixel_coords": [
      50,
      555
    ]
  },
  {
    "name": "Ridge Trail",
    "lat": 46.5754769,
    "lon": -84.3719688,
    "osm_id": 1021562258,
    "osm_type": "way",
    "score": 0.9197683334350586,
    "pixel_coords": [
      50,
      555
    ]
  },
  {
    "name": "River Run Trail",
    "lat": 46.5775959,
    "lon": -84.3686523,
    "osm_id": 1021562274,
    "osm_type": "way",
    "score": 0.9197683334350586,
    "pixel_coords": [
      50,
      555
    ]
  },
  {
    "name": "Shortcut Trail",
    "lat": 46.5776228,
    "lon": -84.3696402,
    "osm_id": 1114844057,
    "osm_type": "way",
    "score": 0.9197683334350586,
    "pixel_coords": [
      50,
      555
    ]
  },
  {
    "name": "Zigzag",
    "lat": 46.5786184,
    "lon": -84.3702183,
    "osm_id": 1118480928,
    "osm_type": "way",
    "score": 0.9197683334350586,
    "pixel_coords": [
      50,
      555
    ]
  },
  {
    "name": "Trail_1021562266",
    "lat": 46.5741245,
    "lon": -84.3882322,
    "osm_id": 1021562266,
    "osm_type": "way",
    "score": 0.9196646809577942,
    "pixel_coords": [
      51,
      553
    ]
  },
  {
    "name": "Trail_1021562269",
    "lat": 46.5750965,
    "lon": -84.3862733,
    "osm_id": 1021562269,
    "osm_type": "way",
    "score": 0.9196646809577942,
    "pixel_coords": [
      51,
      553
    ]
  },
  {
    "name": "Trail_1114844053",
    "lat": 46.5738316,
    "lon": -84.3906954,
    "osm_id": 1114844053,
    "osm_type": "way",
    "score": 0.9196646809577942,
    "pixel_coords": [
      51,
      553
    ]
  },
  {
    "name": "Trail_1114844055",
    "lat": 46.5733774,
    "lon": -84.3908555,
    "osm_id": 1114844055,
    "osm_type": "way",
    "score": 0.9196646809577942,
    "pixel_coords": [
      51,
      553
    ]
  },
  {
    "name": "Voyageur Main Trail",
    "lat": 46.5758217,
    "lon": -84.3807531,
    "osm_id": 689571944,
    "osm_type": "way",
    "score": 0.9195767641067505,
    "pixel_coords": [
      50,
      554
    ]
  },
  {
    "name": "Old Voyageur Trail",
    "lat": 46.5766461,
    "lon": -84.376064,
    "osm_id": 1021562256,
    "osm_type": "way",
    "score": 0.9195767641067505,
    "pixel_coords": [
      50,
      554
    ]
  },
  {
    "name": "Trail_1021562262",
    "lat": 46.5777223,
    "lon": -84.3894484,
    "osm_id": 1021562262,
    "osm_type": "way",
    "score": 0.9195217490196228,
    "pixel_coords": [
      50,
      553
    ]
  },
  {
    "name": "Trail_1021562263",
    "lat": 46.576049,
    "lon": -84.3892055,
    "osm_id": 1021562263,
    "osm_type": "way",
    "score": 0.9195217490196228,
    "pixel_coords": [
      50,
      553
    ]
  },
  {
    "name": "Trail_1021562265",
    "lat": 46.5755507,
    "lon": -84.3887632,
    "osm_id": 1021562265,
    "osm_type": "way",
    "score": 0.9195217490196228,
    "pixel_coords": [
      50,
      553
    ]
  },
  {
    "name": "Trail_1021562268",
    "lat": 46.5768804,
    "lon": -84.389914,
    "osm_id": 1021562268,
    "osm_type": "way",
    "score": 0.9195217490196228,
    "pixel_coords": [
      50,
      553
    ]
  },
  {
    "name": "Trail_1114844048",
    "lat": 46.5778502,
    "lon": -84.3892195,
    "osm_id": 1114844048,
    "osm_type": "way",
    "score": 0.9195217490196228,
    "pixel_coords": [
      50,
      553
    ]
  },
  {
    "name": "Trail_1114844049",
    "lat": 46.575714,
    "lon": -84.3855645,
    "osm_id": 1114844049,
    "osm_type": "way",
    "score": 0.9195217490196228,
    "pixel_coords": [
      50,
      553
    ]
  },
  {
    "name": "Trail_1114844050",
    "lat": 46.5755394,
    "lon": -84.3858858,
    "osm_id": 1114844050,
    "osm_type": "way",
    "score": 0.9195217490196228,
    "pixel_coords": [
      50,
      553
    ]
  },
  {
    "name": "Trail_1114844052",
    "lat": 46.5752564,
    "lon": -84.3867535,
    "osm_id": 1114844052,
    "osm_type": "way",
    "score": 0.9195217490196228,
    "pixel_coords": [
      50,
      553
    ]
  },
  {
    "name": "Trail_1260752429",
    "lat": 46.5111883,
    "lon": -87.658767,
    "osm_id": 1260752429,
    "osm_type": "way",
    "score": 0.9195165634155273,
    "pixel_coords": [
      58,
      160
    ]
  },
  {
    "name": "Baby Lake Trail",
    "lat": 46.5128883,
    "lon": -87.6618535,
    "osm_id": 12502530,
    "osm_type": "relation",
    "score": 0.9195165634155273,
    "pixel_coords": [
      58,
      160
    ]
  },
  {
    "name": "School Trail",
    "lat": 46.5111856,
    "lon": -87.6586895,
    "osm_id": 17335003,
    "osm_type": "relation",
    "score": 0.9195165634155273,
    "pixel_coords": [
      58,
      160
    ]
  },
  {
    "name": "Trail_1021562264",
    "lat": 46.5751541,
    "lon": -84.3922714,
    "osm_id": 1021562264,
    "osm_type": "way",
    "score": 0.9194597601890564,
    "pixel_coords": [
      50,
      552
    ]
  },
  {
    "name": "Trail_671314582",
    "lat": 46.572803,
    "lon": -84.3984674,
    "osm_id": 671314582,
    "osm_type": "way",
    "score": 0.9194214940071106,
    "pixel_coords": [
      51,
      552
    ]
  },
  {
    "name": "Trail_1021562261",
    "lat": 46.5737354,
    "lon": -84.3984674,
    "osm_id": 1021562261,
    "osm_type": "way",
    "score": 0.9194214940071106,
    "pixel_coords": [
      51,
      552
    ]
  },
  {
    "name": "Green/Orange Trail",
    "lat": 46.5182877,
    "lon": -87.5454645,
    "osm_id": 1125082179,
    "osm_type": "way",
    "score": 0.9193852543830872,
    "pixel_coords": [
      57,
      174
    ]
  },
  {
    "name": "Orange Trail",
    "lat": 46.5222124,
    "lon": -87.5427423,
    "osm_id": 1125082180,
    "osm_type": "way",
    "score": 0.9193852543830872,
    "pixel_coords": [
      57,
      174
    ]
  },
  {
    "name": "Blue/Green/Orange Trail",
    "lat": 46.5249154,
    "lon": -87.5446733,
    "osm_id": 1173837616,
    "osm_type": "way",
    "score": 0.9193852543830872,
    "pixel_coords": [
      57,
      174
    ]
  },
  {
    "name": "Blue/Orange Trail",
    "lat": 46.5233317,
    "lon": -87.543002,
    "osm_id": 1173837620,
    "osm_type": "way",
    "score": 0.9193852543830872,
    "pixel_coords": [
      57,
      174
    ]
  },
  {
    "name": "Green/Orange",
    "lat": 46.5208033,
    "lon": -87.5444841,
    "osm_id": 1394868469,
    "osm_type": "way",
    "score": 0.9193852543830872,
    "pixel_coords": [
      57,
      174
    ]
  },
  {
    "name": "Blue/Red Trail",
    "lat": 46.5233317,
    "lon": -87.5423694,
    "osm_id": 1394868470,
    "osm_type": "way",
    "score": 0.9193852543830872,
    "pixel_coords": [
      57,
      174
    ]
  },
  {
    "name": "To All Trails",
    "lat": 46.5750325,
    "lon": -84.3781352,
    "osm_id": 1021562251,
    "osm_type": "way",
    "score": 0.9193229675292969,
    "pixel_coords": [
      51,
      554
    ]
  },
  {
    "name": "Family Trail",
    "lat": 46.57308,
    "lon": -84.3755844,
    "osm_id": 1021562271,
    "osm_type": "way",
    "score": 0.9193229675292969,
    "pixel_coords": [
      51,
      554
    ]
  },
  {
    "name": "Chiwaji",
    "lat": 46.6009413,
    "lon": -87.5118206,
    "osm_id": 771484068,
    "osm_type": "way",
    "score": 0.9192523956298828,
    "pixel_coords": [
      47,
      178
    ]
  },
  {
    "name": "Animoosh to Noque Harkin Junction",
    "lat": 46.6015774,
    "lon": -87.5147647,
    "osm_id": 1116615099,
    "osm_type": "way",
    "score": 0.9192523956298828,
    "pixel_coords": [
      47,
      178
    ]
  },
  {
    "name": "1st Cutoff",
    "lat": 46.5954589,
    "lon": -87.5002999,
    "osm_id": 771484060,
    "osm_type": "way",
    "score": 0.9192203879356384,
    "pixel_coords": [
      48,
      179
    ]
  },
  {
    "name": "2nd Cutoff",
    "lat": 46.5998245,
    "lon": -87.5050078,
    "osm_id": 771484079,
    "osm_type": "way",
    "score": 0.9192203879356384,
    "pixel_coords": [
      48,
      179
    ]
  },
  {
    "name": "Former Nordic Ski Hill",
    "lat": 46.4284114,
    "lon": -80.9629427,
    "osm_id": 1318478865,
    "osm_type": "way",
    "score": 0.9190518260002136,
    "pixel_coords": [
      68,
      964
    ]
  },
  {
    "name": "Animoosh",
    "lat": 46.5912692,
    "lon": -87.5056266,
    "osm_id": 771484057,
    "osm_type": "way",
    "score": 0.9190232753753662,
    "pixel_coords": [
      49,
      179
    ]
  },
  {
    "name": "Animoosh to Grand Central",
    "lat": 46.5899983,
    "lon": -87.500371,
    "osm_id": 771484069,
    "osm_type": "way",
    "score": 0.9190232753753662,
    "pixel_coords": [
      49,
      179
    ]
  },
  {
    "name": "Ontonagon Equestrian Complex",
    "lat": 46.7474537,
    "lon": -88.9357971,
    "osm_id": 17926734,
    "osm_type": "way",
    "score": 0.9189923405647278,
    "pixel_coords": [
      30,
      7
    ]
  },
  {
    "name": "Club Special Trail",
    "lat": 46.5704901,
    "lon": -84.3684794,
    "osm_id": 1021562259,
    "osm_type": "way",
    "score": 0.9189621806144714,
    "pixel_coords": [
      51,
      555
    ]
  },
  {
    "name": "Lookout",
    "lat": 46.5749821,
    "lon": -84.3740016,
    "osm_id": 1026770121,
    "osm_type": "way",
    "score": 0.9189621806144714,
    "pixel_coords": [
      51,
      555
    ]
  },
  {
    "name": "Sophie's Loop",
    "lat": 46.4539429,
    "lon": -80.9681079,
    "osm_id": 456437996,
    "osm_type": "way",
    "score": 0.9189198613166809,
    "pixel_coords": [
      65,
      963
    ]
  },
  {
    "name": "Valley Spur Bike Loop 1, 3, 4 (W)",
    "lat": 46.3454645,
    "lon": -86.7203684,
    "osm_id": 1261920798,
    "osm_type": "way",
    "score": 0.9188209176063538,
    "pixel_coords": [
      78,
      273
    ]
  },
  {
    "name": "Valley Spur (V)",
    "lat": 46.3478785,
    "lon": -86.7235521,
    "osm_id": 1261920799,
    "osm_type": "way",
    "score": 0.9188209176063538,
    "pixel_coords": [
      78,
      273
    ]
  },
  {
    "name": "Trail_1363949604",
    "lat": 46.3965954,
    "lon": -80.9812694,
    "osm_id": 1363949604,
    "osm_type": "way",
    "score": 0.9188161492347717,
    "pixel_coords": [
      72,
      962
    ]
  },
  {
    "name": "Forest Road 1964",
    "lat": 46.7534309,
    "lon": -88.9437048,
    "osm_id": 414288128,
    "osm_type": "way",
    "score": 0.9186785221099854,
    "pixel_coords": [
      29,
      6
    ]
  },
  {
    "name": "Wall Loop",
    "lat": 46.4579625,
    "lon": -80.9629887,
    "osm_id": 456437994,
    "osm_type": "way",
    "score": 0.918675422668457,
    "pixel_coords": [
      65,
      964
    ]
  },
  {
    "name": "Bagwaji",
    "lat": 46.5923247,
    "lon": -87.4962585,
    "osm_id": 771484064,
    "osm_type": "way",
    "score": 0.918558657169342,
    "pixel_coords": [
      48,
      180
    ]
  },
  {
    "name": "Waaban",
    "lat": 46.5922428,
    "lon": -87.4999262,
    "osm_id": 771484073,
    "osm_type": "way",
    "score": 0.918558657169342,
    "pixel_coords": [
      48,
      180
    ]
  },
  {
    "name": "Valley Spur Bike Loop 3 & 4 (W)",
    "lat": 46.3448993,
    "lon": -86.7149989,
    "osm_id": 578679624,
    "osm_type": "way",
    "score": 0.9185510277748108,
    "pixel_coords": [
      78,
      274
    ]
  },
  {
    "name": "Courtney Lake XC Ski Trail",
    "lat": 46.7545949,
    "lon": -88.9415111,
    "osm_id": 17927675,
    "osm_type": "way",
    "score": 0.9185036420822144,
    "pixel_coords": [
      29,
      7
    ]
  },
  {
    "name": "Six-Mile Lake Interpretative Trail",
    "lat": 46.7558197,
    "lon": -88.9344741,
    "osm_id": 1266181111,
    "osm_type": "way",
    "score": 0.9185036420822144,
    "pixel_coords": [
      29,
      7
    ]
  },
  {
    "name": "Courtney Lake",
    "lat": 46.7556943,
    "lon": -88.9408255,
    "osm_id": 1444785166,
    "osm_type": "way",
    "score": 0.9185036420822144,
    "pixel_coords": [
      29,
      7
    ]
  },
  {
    "name": "Valley Spur (Y)",
    "lat": 46.3463728,
    "lon": -86.7022621,
    "osm_id": 17701047,
    "osm_type": "way",
    "score": 0.9184184670448303,
    "pixel_coords": [
      78,
      275
    ]
  },
  {
    "name": "Animoosh to Noque 11.5K",
    "lat": 46.588151,
    "lon": -87.4981731,
    "osm_id": 771484066,
    "osm_type": "way",
    "score": 0.9183512926101685,
    "pixel_coords": [
      49,
      180
    ]
  },
  {
    "name": "Migizi",
    "lat": 46.5899507,
    "lon": -87.4959946,
    "osm_id": 771484077,
    "osm_type": "way",
    "score": 0.9183512926101685,
    "pixel_coords": [
      49,
      180
    ]
  },
  {
    "name": "NTN Forestville Other Trails",
    "lat": 46.5917292,
    "lon": -87.4925315,
    "osm_id": 12104438,
    "osm_type": "relation",
    "score": 0.9183512926101685,
    "pixel_coords": [
      49,
      180
    ]
  },
  {
    "name": "Sprint Loop",
    "lat": 46.4588623,
    "lon": -80.9634483,
    "osm_id": 456437995,
    "osm_type": "way",
    "score": 0.9183078408241272,
    "pixel_coords": [
      64,
      964
    ]
  },
  {
    "name": "Stadium Loop",
    "lat": 46.4608738,
    "lon": -80.9661986,
    "osm_id": 456446945,
    "osm_type": "way",
    "score": 0.9183078408241272,
    "pixel_coords": [
      64,
      964
    ]
  },
  {
    "name": "Valley Spur Bike Loops 2 & 3 (B)",
    "lat": 46.3635964,
    "lon": -86.701959,
    "osm_id": 578677780,
    "osm_type": "way",
    "score": 0.9182997941970825,
    "pixel_coords": [
      76,
      275
    ]
  },
  {
    "name": "Valley Spur (B)",
    "lat": 46.3651683,
    "lon": -86.7043788,
    "osm_id": 578677781,
    "osm_type": "way",
    "score": 0.9182997941970825,
    "pixel_coords": [
      76,
      275
    ]
  },
  {
    "name": "Valley Spur (C)",
    "lat": 46.3618386,
    "lon": -86.7073592,
    "osm_id": 578678314,
    "osm_type": "way",
    "score": 0.9182997941970825,
    "pixel_coords": [
      76,
      275
    ]
  },
  {
    "name": "Valley Spur Bike Loops 1 & 4 (D)",
    "lat": 46.3600672,
    "lon": -86.7074808,
    "osm_id": 1190183679,
    "osm_type": "way",
    "score": 0.9182997941970825,
    "pixel_coords": [
      76,
      275
    ]
  },
  {
    "name": "Hidden Valley Highlands Ski Area",
    "lat": 45.3547679,
    "lon": -79.1333021,
    "osm_id": 361330435,
    "osm_type": "way",
    "score": 0.9182994365692139,
    "pixel_coords": [
      197,
      1183
    ]
  },
  {
    "name": "Valley Spur Bike Loop 1 & 4 (G)",
    "lat": 46.3576875,
    "lon": -86.7033155,
    "osm_id": 1261920795,
    "osm_type": "way",
    "score": 0.9182842969894409,
    "pixel_coords": [
      77,
      275
    ]
  },
  {
    "name": "Valley Spur Bike Route 4 (X)",
    "lat": 46.3562347,
    "lon": -86.7081611,
    "osm_id": 1290775831,
    "osm_type": "way",
    "score": 0.9182842969894409,
    "pixel_coords": [
      77,
      275
    ]
  },
  {
    "name": "Valley Spur Bike Loop 1 & 4 (D)",
    "lat": 46.3579026,
    "lon": -86.7064328,
    "osm_id": 1290777480,
    "osm_type": "way",
    "score": 0.9182842969894409,
    "pixel_coords": [
      77,
      275
    ]
  },
  {
    "name": "Valley Spur (A)",
    "lat": 46.361399,
    "lon": -86.7114967,
    "osm_id": 578678291,
    "osm_type": "way",
    "score": 0.9182727336883545,
    "pixel_coords": [
      76,
      274
    ]
  },
  {
    "name": "Valley Spur Loops 1 & 3 (D)",
    "lat": 46.360084,
    "lon": -86.7148658,
    "osm_id": 578679621,
    "osm_type": "way",
    "score": 0.9182727336883545,
    "pixel_coords": [
      76,
      274
    ]
  },
  {
    "name": "Valley Spur Bike Route 1, 2, 3, 4 (B)",
    "lat": 46.3629212,
    "lon": -86.7107799,
    "osm_id": 1261920801,
    "osm_type": "way",
    "score": 0.9182727336883545,
    "pixel_coords": [
      76,
      274
    ]
  },
  {
    "name": "Valley Spur Loops 1 & 3 (A)",
    "lat": 46.3626737,
    "lon": -86.7132386,
    "osm_id": 1290777478,
    "osm_type": "way",
    "score": 0.9182727336883545,
    "pixel_coords": [
      76,
      274
    ]
  },
  {
    "name": "Valley Spur Bike Loops 1 & 4 (A)",
    "lat": 46.362175,
    "lon": -86.708503,
    "osm_id": 1290777479,
    "osm_type": "way",
    "score": 0.9182727336883545,
    "pixel_coords": [
      76,
      274
    ]
  },
  {
    "name": "Valley Spur (D)",
    "lat": 46.355879,
    "lon": -86.710656,
    "osm_id": 578678295,
    "osm_type": "way",
    "score": 0.9182541370391846,
    "pixel_coords": [
      77,
      274
    ]
  },
  {
    "name": "Valley Spur (W)",
    "lat": 46.3504275,
    "lon": -86.7123033,
    "osm_id": 578679622,
    "osm_type": "way",
    "score": 0.9182541370391846,
    "pixel_coords": [
      77,
      274
    ]
  },
  {
    "name": "Valley Spur Bike Route 4 (Y)",
    "lat": 46.3545005,
    "lon": -86.7123761,
    "osm_id": 1261920800,
    "osm_type": "way",
    "score": 0.9182541370391846,
    "pixel_coords": [
      77,
      274
    ]
  },
  {
    "name": "Valley Spur Bike Route 4 (D)",
    "lat": 46.3540624,
    "lon": -86.7153466,
    "osm_id": 1290775832,
    "osm_type": "way",
    "score": 0.9182541370391846,
    "pixel_coords": [
      77,
      274
    ]
  },
  {
    "name": "Valley Spur Loops 1 & 3 (W & D)",
    "lat": 46.3542457,
    "lon": -86.7159594,
    "osm_id": 1290775834,
    "osm_type": "way",
    "score": 0.9182541370391846,
    "pixel_coords": [
      77,
      274
    ]
  },
  {
    "name": "Valley Spur Loops 1 & 3 (W)",
    "lat": 46.3563835,
    "lon": -86.716647,
    "osm_id": 1290775835,
    "osm_type": "way",
    "score": 0.9182541370391846,
    "pixel_coords": [
      77,
      274
    ]
  },
  {
    "name": "Gully Loop",
    "lat": 46.4604947,
    "lon": -80.971503,
    "osm_id": 456437991,
    "osm_type": "way",
    "score": 0.9182236790657043,
    "pixel_coords": [
      64,
      963
    ]
  },
  {
    "name": "Shed Loop",
    "lat": 46.4600471,
    "lon": -80.9668817,
    "osm_id": 456437992,
    "osm_type": "way",
    "score": 0.9182236790657043,
    "pixel_coords": [
      64,
      963
    ]
  },
  {
    "name": "Wax Test Hill",
    "lat": 46.4599927,
    "lon": -80.9666388,
    "osm_id": 456437993,
    "osm_type": "way",
    "score": 0.9182236790657043,
    "pixel_coords": [
      64,
      963
    ]
  },
  {
    "name": "Siniikaa Trail",
    "lat": 46.3425596,
    "lon": -79.4993429,
    "osm_id": 201353079,
    "osm_type": "way",
    "score": 0.9181703925132751,
    "pixel_coords": [
      78,
      1140
    ]
  },
  {
    "name": "Trail_201353081",
    "lat": 46.3445086,
    "lon": -79.4951286,
    "osm_id": 201353081,
    "osm_type": "way",
    "score": 0.9181703925132751,
    "pixel_coords": [
      78,
      1140
    ]
  },
  {
    "name": "Trail_201353085",
    "lat": 46.3446627,
    "lon": -79.4969937,
    "osm_id": 201353085,
    "osm_type": "way",
    "score": 0.9181703925132751,
    "pixel_coords": [
      78,
      1140
    ]
  },
  {
    "name": "Trail_201353086",
    "lat": 46.3464229,
    "lon": -79.4957281,
    "osm_id": 201353086,
    "osm_type": "way",
    "score": 0.9181703925132751,
    "pixel_coords": [
      78,
      1140
    ]
  },
  {
    "name": "Trail_201353087",
    "lat": 46.3466669,
    "lon": -79.4920573,
    "osm_id": 201353087,
    "osm_type": "way",
    "score": 0.9181703925132751,
    "pixel_coords": [
      78,
      1140
    ]
  },
  {
    "name": "Trail_201353088",
    "lat": 46.3467079,
    "lon": -79.4955937,
    "osm_id": 201353088,
    "osm_type": "way",
    "score": 0.9181703925132751,
    "pixel_coords": [
      78,
      1140
    ]
  },
  {
    "name": "Trail_201353089",
    "lat": 46.3446229,
    "lon": -79.4950089,
    "osm_id": 201353089,
    "osm_type": "way",
    "score": 0.9181703925132751,
    "pixel_coords": [
      78,
      1140
    ]
  },
  {
    "name": "Trail_201353090",
    "lat": 46.3448505,
    "lon": -79.4995782,
    "osm_id": 201353090,
    "osm_type": "way",
    "score": 0.9181703925132751,
    "pixel_coords": [
      78,
      1140
    ]
  },
  {
    "name": "Valley Spur (G)",
    "lat": 46.3631312,
    "lon": -86.6917876,
    "osm_id": 578677785,
    "osm_type": "way",
    "score": 0.9181673526763916,
    "pixel_coords": [
      76,
      276
    ]
  },
  {
    "name": "Valley Spur (I)",
    "lat": 46.3654823,
    "lon": -86.699148,
    "osm_id": 578678312,
    "osm_type": "way",
    "score": 0.9181673526763916,
    "pixel_coords": [
      76,
      276
    ]
  },
  {
    "name": "Olympic",
    "lat": 46.5900058,
    "lon": -84.2656018,
    "osm_id": 604081242,
    "osm_type": "way",
    "score": 0.9181626439094543,
    "pixel_coords": [
      49,
      568
    ]
  },
  {
    "name": "Hiawatha",
    "lat": 46.5893315,
    "lon": -84.2758084,
    "osm_id": 300667184,
    "osm_type": "way",
    "score": 0.9181569218635559,
    "pixel_coords": [
      49,
      566
    ]
  },
  {
    "name": "Trail to Red Pine",
    "lat": 46.585685,
    "lon": -84.2808845,
    "osm_id": 998893269,
    "osm_type": "way",
    "score": 0.9181569218635559,
    "pixel_coords": [
      49,
      566
    ]
  },
  {
    "name": "Roadway Crossover",
    "lat": 46.5886,
    "lon": -84.2774078,
    "osm_id": 998893273,
    "osm_type": "way",
    "score": 0.9181569218635559,
    "pixel_coords": [
      49,
      566
    ]
  },
  {
    "name": "Trail_1009706386",
    "lat": 46.5916861,
    "lon": -84.2830025,
    "osm_id": 1009706386,
    "osm_type": "way",
    "score": 0.9181569218635559,
    "pixel_coords": [
      49,
      566
    ]
  },
  {
    "name": "Ext to Parking Lot",
    "lat": 46.5896153,
    "lon": -84.2820845,
    "osm_id": 1011378652,
    "osm_type": "way",
    "score": 0.9181569218635559,
    "pixel_coords": [
      49,
      566
    ]
  },
  {
    "name": "Valley Spur Bike Loop 1 & 4 (Y)",
    "lat": 46.3535315,
    "lon": -86.6984232,
    "osm_id": 578679623,
    "osm_type": "way",
    "score": 0.9181511402130127,
    "pixel_coords": [
      77,
      276
    ]
  },
  {
    "name": "Ski Yellow",
    "lat": 46.404049,
    "lon": -80.9915702,
    "osm_id": 1363949569,
    "osm_type": "way",
    "score": 0.9181258678436279,
    "pixel_coords": [
      71,
      961
    ]
  },
  {
    "name": "Ski Red",
    "lat": 46.4018406,
    "lon": -80.9914553,
    "osm_id": 1363949577,
    "osm_type": "way",
    "score": 0.9181258678436279,
    "pixel_coords": [
      71,
      961
    ]
  },
  {
    "name": "Ski Purple",
    "lat": 46.4017054,
    "lon": -80.9883695,
    "osm_id": 1363949580,
    "osm_type": "way",
    "score": 0.9181258678436279,
    "pixel_coords": [
      71,
      961
    ]
  },
  {
    "name": "Ski Orange",
    "lat": 46.4040138,
    "lon": -80.9865817,
    "osm_id": 1363949583,
    "osm_type": "way",
    "score": 0.9181258678436279,
    "pixel_coords": [
      71,
      961
    ]
  },
  {
    "name": "Ski Double Black",
    "lat": 46.40043,
    "lon": -80.9874987,
    "osm_id": 1363949599,
    "osm_type": "way",
    "score": 0.9181258678436279,
    "pixel_coords": [
      71,
      961
    ]
  },
  {
    "name": "Wilson Creek",
    "lat": 46.7065865,
    "lon": -87.5866757,
    "osm_id": 867591305,
    "osm_type": "way",
    "score": 0.9181129932403564,
    "pixel_coords": [
      35,
      169
    ]
  },
  {
    "name": "Valley Spur Bike Loops 1, 3, 4 (W)",
    "lat": 46.350787,
    "lon": -86.7180664,
    "osm_id": 17701042,
    "osm_type": "way",
    "score": 0.918110191822052,
    "pixel_coords": [
      77,
      273
    ]
  },
  {
    "name": "Inner Loop Extension",
    "lat": 46.5886683,
    "lon": -84.2729931,
    "osm_id": 999212786,
    "osm_type": "way",
    "score": 0.918086588382721,
    "pixel_coords": [
      49,
      567
    ]
  },
  {
    "name": "Corkscrew",
    "lat": 46.7138773,
    "lon": -87.587138,
    "osm_id": 867591297,
    "osm_type": "way",
    "score": 0.9180632829666138,
    "pixel_coords": [
      34,
      169
    ]
  },
  {
    "name": "Overlook",
    "lat": 46.7114677,
    "lon": -87.5848391,
    "osm_id": 867591298,
    "osm_type": "way",
    "score": 0.9180632829666138,
    "pixel_coords": [
      34,
      169
    ]
  },
  {
    "name": "Hemlock",
    "lat": 46.7144901,
    "lon": -87.5852351,
    "osm_id": 867591299,
    "osm_type": "way",
    "score": 0.9180632829666138,
    "pixel_coords": [
      34,
      169
    ]
  },
  {
    "name": "The Beast",
    "lat": 46.7100567,
    "lon": -87.585153,
    "osm_id": 867591301,
    "osm_type": "way",
    "score": 0.9180632829666138,
    "pixel_coords": [
      34,
      169
    ]
  },
  {
    "name": "Noquemanon Trail Network Saux Head Trails",
    "lat": 46.7135188,
    "lon": -87.5844929,
    "osm_id": 11842303,
    "osm_type": "relation",
    "score": 0.9180632829666138,
    "pixel_coords": [
      34,
      169
    ]
  },
  {
    "name": "Pinder",
    "lat": 46.5871311,
    "lon": -84.2906024,
    "osm_id": 604024896,
    "osm_type": "way",
    "score": 0.918041467666626,
    "pixel_coords": [
      49,
      565
    ]
  },
  {
    "name": "White Pine",
    "lat": 46.5876174,
    "lon": -84.2912656,
    "osm_id": 604059091,
    "osm_type": "way",
    "score": 0.918041467666626,
    "pixel_coords": [
      49,
      565
    ]
  },
  {
    "name": "Mockingbird",
    "lat": 46.590388,
    "lon": -84.2864616,
    "osm_id": 998893253,
    "osm_type": "way",
    "score": 0.918041467666626,
    "pixel_coords": [
      49,
      565
    ]
  },
  {
    "name": "Ski Green",
    "lat": 46.4051762,
    "lon": -80.9923386,
    "osm_id": 1363949568,
    "osm_type": "way",
    "score": 0.918039858341217,
    "pixel_coords": [
      71,
      960
    ]
  },
  {
    "name": "Ski Black",
    "lat": 46.401775,
    "lon": -80.9947732,
    "osm_id": 1363949585,
    "osm_type": "way",
    "score": 0.918039858341217,
    "pixel_coords": [
      71,
      960
    ]
  },
  {
    "name": "Trail_1363949586",
    "lat": 46.4010639,
    "lon": -80.994074,
    "osm_id": 1363949586,
    "osm_type": "way",
    "score": 0.918039858341217,
    "pixel_coords": [
      71,
      960
    ]
  },
  {
    "name": "Ski Blue",
    "lat": 46.4004845,
    "lon": -80.9943326,
    "osm_id": 1363949587,
    "osm_type": "way",
    "score": 0.918039858341217,
    "pixel_coords": [
      71,
      960
    ]
  },
  {
    "name": "Sugar Bush",
    "lat": 46.5845059,
    "lon": -84.2948155,
    "osm_id": 604081244,
    "osm_type": "way",
    "score": 0.9179853796958923,
    "pixel_coords": [
      49,
      564
    ]
  },
  {
    "name": "Oh Deer",
    "lat": 46.5881496,
    "lon": -84.2959478,
    "osm_id": 1327888746,
    "osm_type": "way",
    "score": 0.9179853796958923,
    "pixel_coords": [
      49,
      564
    ]
  },
  {
    "name": "Gookookoo",
    "lat": 46.5860681,
    "lon": -87.4877858,
    "osm_id": 773562024,
    "osm_type": "way",
    "score": 0.9179509282112122,
    "pixel_coords": [
      49,
      181
    ]
  },
  {
    "name": "Trail_867577767",
    "lat": 46.4607611,
    "lon": -87.4242776,
    "osm_id": 867577767,
    "osm_type": "way",
    "score": 0.9179413318634033,
    "pixel_coords": [
      64,
      189
    ]
  },
  {
    "name": "Crossroads Loop",
    "lat": 46.4594749,
    "lon": -87.4195339,
    "osm_id": 867577778,
    "osm_type": "way",
    "score": 0.9179413318634033,
    "pixel_coords": [
      64,
      189
    ]
  },
  {
    "name": "Terrain Park",
    "lat": 46.7667517,
    "lon": -84.0448847,
    "osm_id": 1138231701,
    "osm_type": "way",
    "score": 0.91790771484375,
    "pixel_coords": [
      28,
      594
    ]
  },
  {
    "name": "Valley Spur (H)",
    "lat": 46.3721097,
    "lon": -86.6900533,
    "osm_id": 578677782,
    "osm_type": "way",
    "score": 0.9178969264030457,
    "pixel_coords": [
      75,
      277
    ]
  },
  {
    "name": "Valley Spur (Z)",
    "lat": 46.3705233,
    "lon": -86.6860485,
    "osm_id": 578677783,
    "osm_type": "way",
    "score": 0.9178969264030457,
    "pixel_coords": [
      75,
      277
    ]
  },
  {
    "name": "Mabel Hills",
    "lat": 46.6054801,
    "lon": -84.2364502,
    "osm_id": 999982963,
    "osm_type": "way",
    "score": 0.9178544282913208,
    "pixel_coords": [
      47,
      571
    ]
  },
  {
    "name": "Mabel Flats",
    "lat": 46.598845,
    "lon": -84.2531772,
    "osm_id": 999982959,
    "osm_type": "way",
    "score": 0.9178165793418884,
    "pixel_coords": [
      48,
      569
    ]
  },
  {
    "name": "Kinsmen Lighted",
    "lat": 46.5918675,
    "lon": -84.2794634,
    "osm_id": 604081245,
    "osm_type": "way",
    "score": 0.9178025126457214,
    "pixel_coords": [
      48,
      566
    ]
  },
  {
    "name": "Trail_867577780",
    "lat": 46.4509657,
    "lon": -87.4193482,
    "osm_id": 867577780,
    "osm_type": "way",
    "score": 0.9177005290985107,
    "pixel_coords": [
      65,
      189
    ]
  },
  {
    "name": "Mabel Parking",
    "lat": 46.5948312,
    "lon": -84.266473,
    "osm_id": 999982960,
    "osm_type": "way",
    "score": 0.9176957607269287,
    "pixel_coords": [
      48,
      568
    ]
  },
  {
    "name": "Crystal",
    "lat": 46.5940009,
    "lon": -84.2730772,
    "osm_id": 369087917,
    "osm_type": "way",
    "score": 0.9176881313323975,
    "pixel_coords": [
      48,
      567
    ]
  },
  {
    "name": "Papassay",
    "lat": 46.5846619,
    "lon": -87.4820495,
    "osm_id": 771484063,
    "osm_type": "way",
    "score": 0.9176684617996216,
    "pixel_coords": [
      49,
      182
    ]
  },
  {
    "name": "Trail_889264484",
    "lat": 46.5835859,
    "lon": -87.4802323,
    "osm_id": 889264484,
    "osm_type": "way",
    "score": 0.9176684617996216,
    "pixel_coords": [
      49,
      182
    ]
  },
  {
    "name": "Trail_1331439404",
    "lat": 46.5835132,
    "lon": -87.4799426,
    "osm_id": 1331439404,
    "osm_type": "way",
    "score": 0.9176684617996216,
    "pixel_coords": [
      49,
      182
    ]
  },
  {
    "name": "Boozhoo",
    "lat": 46.582852,
    "lon": -87.4837729,
    "osm_id": 771484070,
    "osm_type": "way",
    "score": 0.9175529479980469,
    "pixel_coords": [
      50,
      181
    ]
  },
  {
    "name": "Red Pine",
    "lat": 46.5822566,
    "lon": -84.2881937,
    "osm_id": 998893263,
    "osm_type": "way",
    "score": 0.9175342917442322,
    "pixel_coords": [
      50,
      565
    ]
  },
  {
    "name": "Barker Trail",
    "lat": 46.3425403,
    "lon": -79.5032117,
    "osm_id": 201353076,
    "osm_type": "way",
    "score": 0.9175273180007935,
    "pixel_coords": [
      78,
      1139
    ]
  },
  {
    "name": "Trail_201353082",
    "lat": 46.3418437,
    "lon": -79.5016818,
    "osm_id": 201353082,
    "osm_type": "way",
    "score": 0.9175273180007935,
    "pixel_coords": [
      78,
      1139
    ]
  },
  {
    "name": "Zhing",
    "lat": 46.5821971,
    "lon": -87.4826905,
    "osm_id": 771484078,
    "osm_type": "way",
    "score": 0.9173805713653564,
    "pixel_coords": [
      50,
      182
    ]
  },
  {
    "name": "Trail_889264483",
    "lat": 46.5834375,
    "lon": -87.4801411,
    "osm_id": 889264483,
    "osm_type": "way",
    "score": 0.9173805713653564,
    "pixel_coords": [
      50,
      182
    ]
  },
  {
    "name": "Trail_1077962870",
    "lat": 46.3467993,
    "lon": -79.2812481,
    "osm_id": 1077962870,
    "osm_type": "way",
    "score": 0.91734379529953,
    "pixel_coords": [
      78,
      1166
    ]
  },
  {
    "name": "Trail_867577774",
    "lat": 46.4494369,
    "lon": -87.4233034,
    "osm_id": 867577774,
    "osm_type": "way",
    "score": 0.9173431396484375,
    "pixel_coords": [
      66,
      189
    ]
  },
  {
    "name": "Lighted Loop",
    "lat": 46.4461583,
    "lon": -87.4183242,
    "osm_id": 867577782,
    "osm_type": "way",
    "score": 0.9173431396484375,
    "pixel_coords": [
      66,
      189
    ]
  },
  {
    "name": "Trail_867577769",
    "lat": 46.4417675,
    "lon": -87.4123215,
    "osm_id": 867577769,
    "osm_type": "way",
    "score": 0.9170268177986145,
    "pixel_coords": [
      67,
      190
    ]
  },
  {
    "name": "Trail_867577773",
    "lat": 46.4586989,
    "lon": -87.4146851,
    "osm_id": 867577773,
    "osm_type": "way",
    "score": 0.9169521331787109,
    "pixel_coords": [
      64,
      190
    ]
  },
  {
    "name": "Fish Hatchery Extension",
    "lat": 46.5752557,
    "lon": -84.2958898,
    "osm_id": 315107801,
    "osm_type": "way",
    "score": 0.9168611168861389,
    "pixel_coords": [
      50,
      564
    ]
  },
  {
    "name": "Coldwater Creek Extension",
    "lat": 46.5715144,
    "lon": -84.2954335,
    "osm_id": 315107715,
    "osm_type": "way",
    "score": 0.9168204069137573,
    "pixel_coords": [
      51,
      564
    ]
  },
  {
    "name": "Access Road",
    "lat": 46.3439743,
    "lon": -79.2846392,
    "osm_id": 1077962863,
    "osm_type": "way",
    "score": 0.9168034791946411,
    "pixel_coords": [
      78,
      1165
    ]
  },
  {
    "name": "Trail_1077962862",
    "lat": 46.3411071,
    "lon": -79.2900393,
    "osm_id": 1077962862,
    "osm_type": "way",
    "score": 0.9166894555091858,
    "pixel_coords": [
      79,
      1165
    ]
  },
  {
    "name": "Trail_202024554",
    "lat": 46.344968,
    "lon": -79.3013636,
    "osm_id": 202024554,
    "osm_type": "way",
    "score": 0.9165475368499756,
    "pixel_coords": [
      78,
      1163
    ]
  },
  {
    "name": "Trail_202024556",
    "lat": 46.3443392,
    "lon": -79.3043366,
    "osm_id": 202024556,
    "osm_type": "way",
    "score": 0.9165475368499756,
    "pixel_coords": [
      78,
      1163
    ]
  },
  {
    "name": "Cub Hollow",
    "lat": 46.2428802,
    "lon": -85.9399337,
    "osm_id": 916023345,
    "osm_type": "way",
    "score": 0.9165166020393372,
    "pixel_coords": [
      90,
      367
    ]
  },
  {
    "name": "Trail_867577772",
    "lat": 46.4577968,
    "lon": -87.4156292,
    "osm_id": 867577772,
    "osm_type": "way",
    "score": 0.916448175907135,
    "pixel_coords": [
      65,
      190
    ]
  },
  {
    "name": "Husky Loop",
    "lat": 46.4548342,
    "lon": -87.4132877,
    "osm_id": 867577777,
    "osm_type": "way",
    "score": 0.916448175907135,
    "pixel_coords": [
      65,
      190
    ]
  },
  {
    "name": "Blueberry Ridge Pathway",
    "lat": 46.451514,
    "lon": -87.4108157,
    "osm_id": 6078761,
    "osm_type": "relation",
    "score": 0.916448175907135,
    "pixel_coords": [
      65,
      190
    ]
  },
  {
    "name": "Trail_1077962861",
    "lat": 46.3503001,
    "lon": -79.2917751,
    "osm_id": 1077962861,
    "osm_type": "way",
    "score": 0.9164438247680664,
    "pixel_coords": [
      77,
      1164
    ]
  },
  {
    "name": "Antoine Mountain",
    "lat": 46.3648685,
    "lon": -78.7379437,
    "osm_id": 1032369122,
    "osm_type": "way",
    "score": 0.9163064956665039,
    "pixel_coords": [
      76,
      1231
    ]
  },
  {
    "name": "Superior Loop",
    "lat": 46.447177,
    "lon": -87.4100596,
    "osm_id": 867577770,
    "osm_type": "way",
    "score": 0.9161078333854675,
    "pixel_coords": [
      66,
      190
    ]
  },
  {
    "name": "Trail_867577775",
    "lat": 46.4483762,
    "lon": -87.41368,
    "osm_id": 867577775,
    "osm_type": "way",
    "score": 0.9161078333854675,
    "pixel_coords": [
      66,
      190
    ]
  },
  {
    "name": "Wolverine Loop",
    "lat": 46.4478298,
    "lon": -87.4165091,
    "osm_id": 867577781,
    "osm_type": "way",
    "score": 0.9161078333854675,
    "pixel_coords": [
      66,
      190
    ]
  },
  {
    "name": "Wildcat Loop",
    "lat": 46.4500532,
    "lon": -87.3995743,
    "osm_id": 867577771,
    "osm_type": "way",
    "score": 0.9157655239105225,
    "pixel_coords": [
      66,
      192
    ]
  },
  {
    "name": "Spartan Loop",
    "lat": 46.4560307,
    "lon": -87.40678,
    "osm_id": 867577776,
    "osm_type": "way",
    "score": 0.9155484437942505,
    "pixel_coords": [
      65,
      191
    ]
  },
  {
    "name": "Mattawa Golf & Ski Resort",
    "lat": 46.2890891,
    "lon": -78.5381171,
    "osm_id": 602554785,
    "osm_type": "way",
    "score": 0.9154999256134033,
    "pixel_coords": [
      85,
      1255
    ]
  },
  {
    "name": "Blue Trail",
    "lat": 46.1919158,
    "lon": -79.3088196,
    "osm_id": 561035977,
    "osm_type": "way",
    "score": 0.9152072072029114,
    "pixel_coords": [
      96,
      1162
    ]
  },
  {
    "name": "Purple Trail",
    "lat": 46.2065035,
    "lon": -79.3071479,
    "osm_id": 561038613,
    "osm_type": "way",
    "score": 0.9151900410652161,
    "pixel_coords": [
      95,
      1163
    ]
  },
  {
    "name": "Trail_561040101",
    "lat": 46.2049816,
    "lon": -79.3107619,
    "osm_id": 561040101,
    "osm_type": "way",
    "score": 0.9150568842887878,
    "pixel_coords": [
      95,
      1162
    ]
  },
  {
    "name": "Trail_561039802",
    "lat": 46.2018809,
    "lon": -79.3215096,
    "osm_id": 561039802,
    "osm_type": "way",
    "score": 0.9149821400642395,
    "pixel_coords": [
      95,
      1161
    ]
  },
  {
    "name": "The Plunge",
    "lat": 46.7176946,
    "lon": -87.584039,
    "osm_id": 867591302,
    "osm_type": "way",
    "score": 0.9131948947906494,
    "pixel_coords": [
      33,
      169
    ]
  },
  {
    "name": "Backside",
    "lat": 46.7188731,
    "lon": -87.584856,
    "osm_id": 1082104655,
    "osm_type": "way",
    "score": 0.9131948947906494,
    "pixel_coords": [
      33,
      169
    ]
  },
  {
    "name": "Trail_1429259439",
    "lat": 46.7198995,
    "lon": -87.5876799,
    "osm_id": 1429259439,
    "osm_type": "way",
    "score": 0.9131948947906494,
    "pixel_coords": [
      33,
      169
    ]
  },
  {
    "name": "Relic Pine Loop",
    "lat": 45.0042036,
    "lon": -84.7331597,
    "osm_id": 713788712,
    "osm_type": "way",
    "score": 0.9128926396369934,
    "pixel_coords": [
      239,
      512
    ]
  },
  {
    "name": "Highland Loop",
    "lat": 45.0008173,
    "lon": -84.7332587,
    "osm_id": 713788715,
    "osm_type": "way",
    "score": 0.9128926396369934,
    "pixel_coords": [
      239,
      512
    ]
  },
  {
    "name": "Tot Loop",
    "lat": 46.0178702,
    "lon": -86.9769579,
    "osm_id": 15437611,
    "osm_type": "relation",
    "score": 0.9126542210578918,
    "pixel_coords": [
      117,
      242
    ]
  },
  {
    "name": "Twin Hemlock Loop",
    "lat": 45.0049327,
    "lon": -84.742998,
    "osm_id": 713788710,
    "osm_type": "way",
    "score": 0.9124019145965576,
    "pixel_coords": [
      239,
      510
    ]
  },
  {
    "name": "Pine Baron Pathway",
    "lat": 45.0040882,
    "lon": -84.7434779,
    "osm_id": 11783326,
    "osm_type": "relation",
    "score": 0.9124019145965576,
    "pixel_coords": [
      239,
      510
    ]
  },
  {
    "name": "Beaver Valley Ski Club",
    "lat": 44.3552778,
    "lon": -80.5507064,
    "osm_id": 496731544,
    "osm_type": "way",
    "score": 0.9122788906097412,
    "pixel_coords": [
      317,
      1013
    ]
  },
  {
    "name": "Trail_1022445599",
    "lat": 44.9522926,
    "lon": -84.656943,
    "osm_id": 1022445599,
    "osm_type": "way",
    "score": 0.9122369289398193,
    "pixel_coords": [
      245,
      521
    ]
  },
  {
    "name": "Whoopsy Loop",
    "lat": 45.0020687,
    "lon": -84.7513378,
    "osm_id": 713788718,
    "osm_type": "way",
    "score": 0.9121935367584229,
    "pixel_coords": [
      239,
      509
    ]
  },
  {
    "name": "Inman Creek Road",
    "lat": 45.9986005,
    "lon": -86.9849832,
    "osm_id": 17773447,
    "osm_type": "way",
    "score": 0.9120879769325256,
    "pixel_coords": [
      120,
      241
    ]
  },
  {
    "name": "S2 Loop",
    "lat": 45.9944416,
    "lon": -86.9898444,
    "osm_id": 17775546,
    "osm_type": "way",
    "score": 0.9120879769325256,
    "pixel_coords": [
      120,
      241
    ]
  },
  {
    "name": "Trail_1138160366",
    "lat": 45.9953819,
    "lon": -86.9875104,
    "osm_id": 1138160366,
    "osm_type": "way",
    "score": 0.9120879769325256,
    "pixel_coords": [
      120,
      241
    ]
  },
  {
    "name": "C Loop",
    "lat": 45.9977544,
    "lon": -86.9839075,
    "osm_id": 1138542921,
    "osm_type": "way",
    "score": 0.9120879769325256,
    "pixel_coords": [
      120,
      241
    ]
  },
  {
    "name": "Trail_1138542923",
    "lat": 45.9959786,
    "lon": -86.9856462,
    "osm_id": 1138542923,
    "osm_type": "way",
    "score": 0.9120879769325256,
    "pixel_coords": [
      120,
      241
    ]
  },
  {
    "name": "Trail_1138542924",
    "lat": 45.9966331,
    "lon": -86.9897507,
    "osm_id": 1138542924,
    "osm_type": "way",
    "score": 0.9120879769325256,
    "pixel_coords": [
      120,
      241
    ]
  },
  {
    "name": "Trail_15443159",
    "lat": 45.9992988,
    "lon": -86.986014,
    "osm_id": 15443159,
    "osm_type": "relation",
    "score": 0.9120879769325256,
    "pixel_coords": [
      120,
      241
    ]
  },
  {
    "name": "Trail_1138160370",
    "lat": 45.9959461,
    "lon": -86.9829118,
    "osm_id": 1138160370,
    "osm_type": "way",
    "score": 0.9119856357574463,
    "pixel_coords": [
      120,
      242
    ]
  },
  {
    "name": "S1 Loop",
    "lat": 46.0013732,
    "lon": -86.99369,
    "osm_id": 1124559658,
    "osm_type": "way",
    "score": 0.9119570255279541,
    "pixel_coords": [
      119,
      240
    ]
  },
  {
    "name": "Nordic Ski Club",
    "lat": 46.3421653,
    "lon": -79.3188107,
    "osm_id": 202024552,
    "osm_type": "way",
    "score": 0.9117716550827026,
    "pixel_coords": [
      78,
      1161
    ]
  },
  {
    "name": "A Loop",
    "lat": 46.0131078,
    "lon": -86.9810463,
    "osm_id": 1124559659,
    "osm_type": "way",
    "score": 0.9117371439933777,
    "pixel_coords": [
      118,
      242
    ]
  },
  {
    "name": "Trail_1136583871",
    "lat": 46.014798,
    "lon": -86.9753503,
    "osm_id": 1136583871,
    "osm_type": "way",
    "score": 0.9117371439933777,
    "pixel_coords": [
      118,
      242
    ]
  },
  {
    "name": "Trail_1136583872",
    "lat": 46.0139468,
    "lon": -86.9762415,
    "osm_id": 1136583872,
    "osm_type": "way",
    "score": 0.9117371439933777,
    "pixel_coords": [
      118,
      242
    ]
  },
  {
    "name": "Inman Creek Spur A",
    "lat": 46.0165813,
    "lon": -86.9771786,
    "osm_id": 1136583876,
    "osm_type": "way",
    "score": 0.9117371439933777,
    "pixel_coords": [
      118,
      242
    ]
  },
  {
    "name": "Slow Poke",
    "lat": 46.0128923,
    "lon": -86.9758781,
    "osm_id": 1138160363,
    "osm_type": "way",
    "score": 0.9117371439933777,
    "pixel_coords": [
      118,
      242
    ]
  },
  {
    "name": "Trail_15437612",
    "lat": 46.0143968,
    "lon": -86.9784493,
    "osm_id": 15437612,
    "osm_type": "relation",
    "score": 0.9117371439933777,
    "pixel_coords": [
      118,
      242
    ]
  },
  {
    "name": "Trail_15443160",
    "lat": 46.0084945,
    "lon": -86.9818251,
    "osm_id": 15443160,
    "osm_type": "relation",
    "score": 0.9117371439933777,
    "pixel_coords": [
      118,
      242
    ]
  },
  {
    "name": "D Loop",
    "lat": 45.9839559,
    "lon": -86.9862284,
    "osm_id": 1124559654,
    "osm_type": "way",
    "score": 0.9117359519004822,
    "pixel_coords": [
      121,
      241
    ]
  },
  {
    "name": "Trail_1138542912",
    "lat": 45.9905576,
    "lon": -86.9876235,
    "osm_id": 1138542912,
    "osm_type": "way",
    "score": 0.9117359519004822,
    "pixel_coords": [
      121,
      241
    ]
  },
  {
    "name": "Inman Creek Spur B",
    "lat": 46.0053308,
    "lon": -86.98719,
    "osm_id": 331675026,
    "osm_type": "way",
    "score": 0.9116764068603516,
    "pixel_coords": [
      119,
      241
    ]
  },
  {
    "name": "Trail_15443161",
    "lat": 46.0062861,
    "lon": -86.986014,
    "osm_id": 15443161,
    "osm_type": "relation",
    "score": 0.9116764068603516,
    "pixel_coords": [
      119,
      241
    ]
  },
  {
    "name": "B Loop",
    "lat": 46.0046938,
    "lon": -86.9751652,
    "osm_id": 17775817,
    "osm_type": "way",
    "score": 0.9115755558013916,
    "pixel_coords": [
      119,
      242
    ]
  },
  {
    "name": "Trail_15437610",
    "lat": 46.0077342,
    "lon": -86.9818251,
    "osm_id": 15437610,
    "osm_type": "relation",
    "score": 0.9115755558013916,
    "pixel_coords": [
      119,
      242
    ]
  },
  {
    "name": "North Lake Trail",
    "lat": 44.9423419,
    "lon": -84.6383512,
    "osm_id": 1022445603,
    "osm_type": "way",
    "score": 0.9112505316734314,
    "pixel_coords": [
      246,
      523
    ]
  },
  {
    "name": "Bear Hollow",
    "lat": 46.2430741,
    "lon": -85.9446703,
    "osm_id": 916023344,
    "osm_type": "way",
    "score": 0.9109381437301636,
    "pixel_coords": [
      90,
      366
    ]
  },
  {
    "name": "South River Trail",
    "lat": 44.9549229,
    "lon": -84.6634984,
    "osm_id": 1022445593,
    "osm_type": "way",
    "score": 0.9108374118804932,
    "pixel_coords": [
      245,
      520
    ]
  },
  {
    "name": "North River Trail",
    "lat": 44.9551407,
    "lon": -84.6632411,
    "osm_id": 1022445600,
    "osm_type": "way",
    "score": 0.9108374118804932,
    "pixel_coords": [
      245,
      520
    ]
  },
  {
    "name": "Boogie Mountain",
    "lat": 46.2392422,
    "lon": -81.7739931,
    "osm_id": 423725242,
    "osm_type": "way",
    "score": 0.9106999635696411,
    "pixel_coords": [
      91,
      867
    ]
  },
  {
    "name": "Kawartha T16-T13",
    "lat": 44.65318,
    "lon": -78.1092,
    "osm_id": 1014208365,
    "osm_type": "way",
    "score": 0.9106478095054626,
    "pixel_coords": [
      281,
      1306
    ]
  },
  {
    "name": "Trillium T12-T13",
    "lat": 44.6502614,
    "lon": -78.1067093,
    "osm_id": 1014208353,
    "osm_type": "way",
    "score": 0.9103653430938721,
    "pixel_coords": [
      281,
      1307
    ]
  },
  {
    "name": "PL Road",
    "lat": 44.66164,
    "lon": -78.1154,
    "osm_id": 1014208426,
    "osm_type": "way",
    "score": 0.9101841449737549,
    "pixel_coords": [
      280,
      1306
    ]
  },
  {
    "name": "Owl",
    "lat": 44.65525,
    "lon": -78.119055,
    "osm_id": 1014208428,
    "osm_type": "way",
    "score": 0.9101731777191162,
    "pixel_coords": [
      281,
      1305
    ]
  },
  {
    "name": "Trillium T11-T12",
    "lat": 44.642405,
    "lon": -78.11018,
    "osm_id": 1014208352,
    "osm_type": "way",
    "score": 0.9101622700691223,
    "pixel_coords": [
      282,
      1306
    ]
  },
  {
    "name": "Kawartha T17-T16",
    "lat": 44.644875,
    "lon": -78.115485,
    "osm_id": 1014208366,
    "osm_type": "way",
    "score": 0.9101622700691223,
    "pixel_coords": [
      282,
      1306
    ]
  },
  {
    "name": "Wolf Bypass",
    "lat": 44.6453784,
    "lon": -78.1122803,
    "osm_id": 1348565671,
    "osm_type": "way",
    "score": 0.9101622700691223,
    "pixel_coords": [
      282,
      1306
    ]
  },
  {
    "name": "Kawartha (N of Wolf)",
    "lat": 44.647955,
    "lon": -78.112135,
    "osm_id": 13578537,
    "osm_type": "relation",
    "score": 0.9101622700691223,
    "pixel_coords": [
      282,
      1306
    ]
  },
  {
    "name": "Skate / Classic Loop",
    "lat": 46.5501858,
    "lon": -87.4084445,
    "osm_id": 525115296,
    "osm_type": "way",
    "score": 0.9101583957672119,
    "pixel_coords": [
      53,
      190
    ]
  },
  {
    "name": "Weary Legs",
    "lat": 44.7642082,
    "lon": -84.6918841,
    "osm_id": 970347488,
    "osm_type": "way",
    "score": 0.9101340174674988,
    "pixel_coords": [
      268,
      516
    ]
  },
  {
    "name": "Trillium T13-T14",
    "lat": 44.65849,
    "lon": -78.105565,
    "osm_id": 1014208354,
    "osm_type": "way",
    "score": 0.910089373588562,
    "pixel_coords": [
      280,
      1307
    ]
  },
  {
    "name": "Bennett East",
    "lat": 44.677015,
    "lon": -78.09924,
    "osm_id": 1014208437,
    "osm_type": "way",
    "score": 0.9099626541137695,
    "pixel_coords": [
      278,
      1308
    ]
  },
  {
    "name": "Bennett West",
    "lat": 44.676845,
    "lon": -78.1098042,
    "osm_id": 1348345838,
    "osm_type": "way",
    "score": 0.9097371697425842,
    "pixel_coords": [
      278,
      1306
    ]
  },
  {
    "name": "Trillium T10-T11",
    "lat": 44.6351596,
    "lon": -78.1137452,
    "osm_id": 1014208351,
    "osm_type": "way",
    "score": 0.9097294211387634,
    "pixel_coords": [
      283,
      1306
    ]
  },
  {
    "name": "Wolf",
    "lat": 44.63921,
    "lon": -78.1154,
    "osm_id": 1014208412,
    "osm_type": "way",
    "score": 0.9097294211387634,
    "pixel_coords": [
      283,
      1306
    ]
  },
  {
    "name": "Kawartha Nordic",
    "lat": 44.636647,
    "lon": -78.1144383,
    "osm_id": 1014437604,
    "osm_type": "way",
    "score": 0.9097294211387634,
    "pixel_coords": [
      283,
      1306
    ]
  },
  {
    "name": "Trillium",
    "lat": 44.64128,
    "lon": -78.11278,
    "osm_id": 13578536,
    "osm_type": "relation",
    "score": 0.9097294211387634,
    "pixel_coords": [
      283,
      1306
    ]
  },
  {
    "name": "Canadian Ski Marathon Official Training Route",
    "lat": 44.6364,
    "lon": -78.114665,
    "osm_id": 13708628,
    "osm_type": "relation",
    "score": 0.9097294211387634,
    "pixel_coords": [
      283,
      1306
    ]
  },
  {
    "name": "Classic Only Loop",
    "lat": 46.5480276,
    "lon": -87.4093898,
    "osm_id": 525115299,
    "osm_type": "way",
    "score": 0.9096697568893433,
    "pixel_coords": [
      54,
      190
    ]
  },
  {
    "name": "Old Kenner North",
    "lat": 44.6468701,
    "lon": -78.1173519,
    "osm_id": 1348565670,
    "osm_type": "way",
    "score": 0.909612774848938,
    "pixel_coords": [
      282,
      1305
    ]
  },
  {
    "name": "Kenner L12-T12",
    "lat": 44.6397314,
    "lon": -78.104235,
    "osm_id": 1023818820,
    "osm_type": "way",
    "score": 0.909515380859375,
    "pixel_coords": [
      283,
      1307
    ]
  },
  {
    "name": "MUT Connector",
    "lat": 44.6393064,
    "lon": -78.1050181,
    "osm_id": 1347604380,
    "osm_type": "way",
    "score": 0.909515380859375,
    "pixel_coords": [
      283,
      1307
    ]
  },
  {
    "name": "Kenner (N of Fisher)",
    "lat": 44.634695,
    "lon": -78.102495,
    "osm_id": 13687192,
    "osm_type": "relation",
    "score": 0.909515380859375,
    "pixel_coords": [
      283,
      1307
    ]
  },
  {
    "name": "Nordic Trail",
    "lat": 44.9487898,
    "lon": -84.6566708,
    "osm_id": 1022445594,
    "osm_type": "way",
    "score": 0.9095130562782288,
    "pixel_coords": [
      246,
      521
    ]
  },
  {
    "name": "West Ridge Trail",
    "lat": 44.9468585,
    "lon": -84.6520862,
    "osm_id": 1022445608,
    "osm_type": "way",
    "score": 0.9095130562782288,
    "pixel_coords": [
      246,
      521
    ]
  },
  {
    "name": "Kawartha T18-T17",
    "lat": 44.63508,
    "lon": -78.122945,
    "osm_id": 1014208431,
    "osm_type": "way",
    "score": 0.909475564956665,
    "pixel_coords": [
      283,
      1305
    ]
  },
  {
    "name": "Tanney Loop",
    "lat": 44.63839,
    "lon": -78.1187,
    "osm_id": 13724624,
    "osm_type": "relation",
    "score": 0.909475564956665,
    "pixel_coords": [
      283,
      1305
    ]
  },
  {
    "name": "Kenner L11-L12",
    "lat": 44.6295,
    "lon": -78.100485,
    "osm_id": 1014208375,
    "osm_type": "way",
    "score": 0.9094632267951965,
    "pixel_coords": [
      284,
      1307
    ]
  },
  {
    "name": "Trillium T9-T10",
    "lat": 44.6302496,
    "lon": -78.1162252,
    "osm_id": 1014208350,
    "osm_type": "way",
    "score": 0.9093863368034363,
    "pixel_coords": [
      284,
      1306
    ]
  },
  {
    "name": "Adam Scott L13-L14",
    "lat": 44.62534,
    "lon": -78.111,
    "osm_id": 1014208440,
    "osm_type": "way",
    "score": 0.9093863368034363,
    "pixel_coords": [
      284,
      1306
    ]
  },
  {
    "name": "Adam Scott T9-L13",
    "lat": 44.6298446,
    "lon": -78.1133846,
    "osm_id": 1023818819,
    "osm_type": "way",
    "score": 0.9093863368034363,
    "pixel_coords": [
      284,
      1306
    ]
  },
  {
    "name": "Adam Scott Heritage Trail",
    "lat": 44.63086,
    "lon": -78.11106,
    "osm_id": 15015283,
    "osm_type": "relation",
    "score": 0.9093863368034363,
    "pixel_coords": [
      284,
      1306
    ]
  },
  {
    "name": "Salling Street",
    "lat": 44.773022,
    "lon": -84.6981445,
    "osm_id": 969844179,
    "osm_type": "way",
    "score": 0.9092758893966675,
    "pixel_coords": [
      267,
      516
    ]
  },
  {
    "name": "Cry Baby",
    "lat": 44.7747717,
    "lon": -84.6996688,
    "osm_id": 1239748779,
    "osm_type": "way",
    "score": 0.9092758893966675,
    "pixel_coords": [
      267,
      516
    ]
  },
  {
    "name": "Herringbone Trail",
    "lat": 44.9452607,
    "lon": -84.6447681,
    "osm_id": 1022445606,
    "osm_type": "way",
    "score": 0.909264862537384,
    "pixel_coords": [
      246,
      522
    ]
  },
  {
    "name": "Red Fox T18-W1",
    "lat": 44.629805,
    "lon": -78.122835,
    "osm_id": 1014208423,
    "osm_type": "way",
    "score": 0.90913987159729,
    "pixel_coords": [
      284,
      1305
    ]
  },
  {
    "name": "Adam Scott Heritage W2-W1",
    "lat": 44.6289,
    "lon": -78.1179171,
    "osm_id": 1115560116,
    "osm_type": "way",
    "score": 0.90913987159729,
    "pixel_coords": [
      284,
      1305
    ]
  },
  {
    "name": "Trillium T8-T9",
    "lat": 44.6280278,
    "lon": -78.1173265,
    "osm_id": 1122816467,
    "osm_type": "way",
    "score": 0.90913987159729,
    "pixel_coords": [
      284,
      1305
    ]
  },
  {
    "name": "Red Fox W1-T9",
    "lat": 44.62935,
    "lon": -78.117425,
    "osm_id": 1122816469,
    "osm_type": "way",
    "score": 0.90913987159729,
    "pixel_coords": [
      284,
      1305
    ]
  },
  {
    "name": "Kawartha (S of Wolf)",
    "lat": 44.631125,
    "lon": -78.1241964,
    "osm_id": 13687193,
    "osm_type": "relation",
    "score": 0.90913987159729,
    "pixel_coords": [
      284,
      1305
    ]
  },
  {
    "name": "Red Fox",
    "lat": 44.629805,
    "lon": -78.12248,
    "osm_id": 15015284,
    "osm_type": "relation",
    "score": 0.90913987159729,
    "pixel_coords": [
      284,
      1305
    ]
  },
  {
    "name": "Kenner L10-L11",
    "lat": 44.6169,
    "lon": -78.10387,
    "osm_id": 1014208430,
    "osm_type": "way",
    "score": 0.9091156721115112,
    "pixel_coords": [
      285,
      1307
    ]
  },
  {
    "name": "Fisher (E of Adam Scott)",
    "lat": 44.62333,
    "lon": -78.103855,
    "osm_id": 1014208434,
    "osm_type": "way",
    "score": 0.9091156721115112,
    "pixel_coords": [
      285,
      1307
    ]
  },
  {
    "name": "Adam Scott L9-L10",
    "lat": 44.613465,
    "lon": -78.11007,
    "osm_id": 1014208372,
    "osm_type": "way",
    "score": 0.9090681076049805,
    "pixel_coords": [
      286,
      1306
    ]
  },
  {
    "name": "Kenner L8-L10",
    "lat": 44.612015,
    "lon": -78.11529,
    "osm_id": 1014208374,
    "osm_type": "way",
    "score": 0.9090681076049805,
    "pixel_coords": [
      286,
      1306
    ]
  },
  {
    "name": "Deer",
    "lat": 44.616555,
    "lon": -78.11478,
    "osm_id": 1014208435,
    "osm_type": "way",
    "score": 0.9090681076049805,
    "pixel_coords": [
      286,
      1306
    ]
  },
  {
    "name": "Adam Scott L14-L9",
    "lat": 44.61951,
    "lon": -78.108815,
    "osm_id": 1014208371,
    "osm_type": "way",
    "score": 0.9090574979782104,
    "pixel_coords": [
      285,
      1306
    ]
  },
  {
    "name": "Fisher L15-L14",
    "lat": 44.62212,
    "lon": -78.11388,
    "osm_id": 1014367939,
    "osm_type": "way",
    "score": 0.9090574979782104,
    "pixel_coords": [
      285,
      1306
    ]
  },
  {
    "name": "Adam Scott",
    "lat": 44.6205196,
    "lon": -78.1116646,
    "osm_id": 13578539,
    "osm_type": "relation",
    "score": 0.9090574979782104,
    "pixel_coords": [
      285,
      1306
    ]
  },
  {
    "name": "Kenner (S of Fisher)",
    "lat": 44.616875,
    "lon": -78.11064,
    "osm_id": 13578541,
    "osm_type": "relation",
    "score": 0.9090574979782104,
    "pixel_coords": [
      285,
      1306
    ]
  },
  {
    "name": "Fisher (W of Adam Scott)",
    "lat": 44.62212,
    "lon": -78.115165,
    "osm_id": 13687191,
    "osm_type": "relation",
    "score": 0.9090574979782104,
    "pixel_coords": [
      285,
      1306
    ]
  },
  {
    "name": "Kawartha T19-T18",
    "lat": 44.626625,
    "lon": -78.1291414,
    "osm_id": 1014208364,
    "osm_type": "way",
    "score": 0.9089643955230713,
    "pixel_coords": [
      284,
      1304
    ]
  },
  {
    "name": "Connector J5.7-SS",
    "lat": 44.6187842,
    "lon": -78.1235558,
    "osm_id": 1014208333,
    "osm_type": "way",
    "score": 0.9088855385780334,
    "pixel_coords": [
      285,
      1305
    ]
  },
  {
    "name": "Sugar Shack J3-T4",
    "lat": 44.622105,
    "lon": -78.1243,
    "osm_id": 1014208334,
    "osm_type": "way",
    "score": 0.9088855385780334,
    "pixel_coords": [
      285,
      1305
    ]
  },
  {
    "name": "Roll L25-J7",
    "lat": 44.61754,
    "lon": -78.12244,
    "osm_id": 1014208335,
    "osm_type": "way",
    "score": 0.9088855385780334,
    "pixel_coords": [
      285,
      1305
    ]
  },
  {
    "name": "Rattle L24-J6",
    "lat": 44.61794,
    "lon": -78.122425,
    "osm_id": 1014208336,
    "osm_type": "way",
    "score": 0.9088855385780334,
    "pixel_coords": [
      285,
      1305
    ]
  },
  {
    "name": "Roll J8-L16",
    "lat": 44.62083,
    "lon": -78.1193,
    "osm_id": 1014208337,
    "osm_type": "way",
    "score": 0.9088855385780334,
    "pixel_coords": [
      285,
      1305
    ]
  },
  {
    "name": "Rattle J8-L17",
    "lat": 44.620785,
    "lon": -78.12,
    "osm_id": 1014208338,
    "osm_type": "way",
    "score": 0.9088855385780334,
    "pixel_coords": [
      285,
      1305
    ]
  },
  {
    "name": "Rabbit L7-L25",
    "lat": 44.61814,
    "lon": -78.123735,
    "osm_id": 1014208341,
    "osm_type": "way",
    "score": 0.9088855385780334,
    "pixel_coords": [
      285,
      1305
    ]
  },
  {
    "name": "Rabbit L25-L24",
    "lat": 44.618325,
    "lon": -78.123435,
    "osm_id": 1014208342,
    "osm_type": "way",
    "score": 0.9088855385780334,
    "pixel_coords": [
      285,
      1305
    ]
  },
  {
    "name": "Rabbit L24-L23",
    "lat": 44.618655,
    "lon": -78.12317,
    "osm_id": 1014208343,
    "osm_type": "way",
    "score": 0.9088855385780334,
    "pixel_coords": [
      285,
      1305
    ]
  },
  {
    "name": "Rabbit L21-L20",
    "lat": 44.6196853,
    "lon": -78.1220793,
    "osm_id": 1014208344,
    "osm_type": "way",
    "score": 0.9088855385780334,
    "pixel_coords": [
      285,
      1305
    ]
  },
  {
    "name": "Rabbit L20-L19",
    "lat": 44.62001,
    "lon": -78.121085,
    "osm_id": 1014208345,
    "osm_type": "way",
    "score": 0.9088855385780334,
    "pixel_coords": [
      285,
      1305
    ]
  },
  {
    "name": "Shake L20-L18",
    "lat": 44.620825,
    "lon": -78.12083,
    "osm_id": 1014208346,
    "osm_type": "way",
    "score": 0.9088855385780334,
    "pixel_coords": [
      285,
      1305
    ]
  },
  {
    "name": "Rabbit L19-L18",
    "lat": 44.620865,
    "lon": -78.12066,
    "osm_id": 1014208347,
    "osm_type": "way",
    "score": 0.9088855385780334,
    "pixel_coords": [
      285,
      1305
    ]
  },
  {
    "name": "Rabbit L18-T6",
    "lat": 44.62175,
    "lon": -78.12031,
    "osm_id": 1014208348,
    "osm_type": "way",
    "score": 0.9088855385780334,
    "pixel_coords": [
      285,
      1305
    ]
  },
  {
    "name": "Trillium T6-T7",
    "lat": 44.62217,
    "lon": -78.12017,
    "osm_id": 1014208349,
    "osm_type": "way",
    "score": 0.9088855385780334,
    "pixel_coords": [
      285,
      1305
    ]
  },
  {
    "name": "Fisher T6-L17",
    "lat": 44.62182,
    "lon": -78.12007,
    "osm_id": 1014208367,
    "osm_type": "way",
    "score": 0.9088855385780334,
    "pixel_coords": [
      285,
      1305
    ]
  },
  {
    "name": "Fisher L17-L16",
    "lat": 44.621865,
    "lon": -78.119575,
    "osm_id": 1014208368,
    "osm_type": "way",
    "score": 0.9088855385780334,
    "pixel_coords": [
      285,
      1305
    ]
  },
  {
    "name": "Fisher L16-L15",
    "lat": 44.6221,
    "lon": -78.11852,
    "osm_id": 1014208369,
    "osm_type": "way",
    "score": 0.9088855385780334,
    "pixel_coords": [
      285,
      1305
    ]
  },
  {
    "name": "Beaver T4-T5",
    "lat": 44.622155,
    "lon": -78.123705,
    "osm_id": 1014208380,
    "osm_type": "way",
    "score": 0.9088855385780334,
    "pixel_coords": [
      285,
      1305
    ]
  },
  {
    "name": "Beaver T5-T6",
    "lat": 44.622045,
    "lon": -78.12173,
    "osm_id": 1014208381,
    "osm_type": "way",
    "score": 0.9088855385780334,
    "pixel_coords": [
      285,
      1305
    ]
  },
  {
    "name": "Connector J5.2-SS",
    "lat": 44.6191622,
    "lon": -78.1233327,
    "osm_id": 1014208394,
    "osm_type": "way",
    "score": 0.9088855385780334,
    "pixel_coords": [
      285,
      1305
    ]
  },
  {
    "name": "Connector J6-J7",
    "lat": 44.61735,
    "lon": -78.12143,
    "osm_id": 1014208402,
    "osm_type": "way",
    "score": 0.9088855385780334,
    "pixel_coords": [
      285,
      1305
    ]
  },
  {
    "name": "Trillium T7-T8",
    "lat": 44.6245727,
    "lon": -78.1189114,
    "osm_id": 1014208413,
    "osm_type": "way",
    "score": 0.9088855385780334,
    "pixel_coords": [
      285,
      1305
    ]
  },
  {
    "name": "Sugar Shack T4-J5",
    "lat": 44.62067,
    "lon": -78.124535,
    "osm_id": 1014208417,
    "osm_type": "way",
    "score": 0.9088855385780334,
    "pixel_coords": [
      285,
      1305
    ]
  },
  {
    "name": "Shake L23-L19",
    "lat": 44.619415,
    "lon": -78.121885,
    "osm_id": 1014208419,
    "osm_type": "way",
    "score": 0.9088855385780334,
    "pixel_coords": [
      285,
      1305
    ]
  },
  {
    "name": "Roll J7-J8",
    "lat": 44.618445,
    "lon": -78.11914,
    "osm_id": 1014208420,
    "osm_type": "way",
    "score": 0.9088855385780334,
    "pixel_coords": [
      285,
      1305
    ]
  },
  {
    "name": "The Hills",
    "lat": 44.623055,
    "lon": -78.118795,
    "osm_id": 1014208422,
    "osm_type": "way",
    "score": 0.9088855385780334,
    "pixel_coords": [
      285,
      1305
    ]
  },
  {
    "name": "Rattle J6-J8",
    "lat": 44.6186,
    "lon": -78.120745,
    "osm_id": 1014208424,
    "osm_type": "way",
    "score": 0.9088855385780334,
    "pixel_coords": [
      285,
      1305
    ]
  },
  {
    "name": "High Road J3-T5",
    "lat": 44.622245,
    "lon": -78.123755,
    "osm_id": 1014367943,
    "osm_type": "way",
    "score": 0.9088855385780334,
    "pixel_coords": [
      285,
      1305
    ]
  },
  {
    "name": "High Road T5-T7",
    "lat": 44.62257,
    "lon": -78.1216,
    "osm_id": 1014367944,
    "osm_type": "way",
    "score": 0.9088855385780334,
    "pixel_coords": [
      285,
      1305
    ]
  },
  {
    "name": "Rabbit L23-L22",
    "lat": 44.6190753,
    "lon": -78.1229763,
    "osm_id": 1023342185,
    "osm_type": "way",
    "score": 0.9088855385780334,
    "pixel_coords": [
      285,
      1305
    ]
  },
  {
    "name": "Sugar Shack J5.7-L24",
    "lat": 44.61851,
    "lon": -78.12349,
    "osm_id": 1023801321,
    "osm_type": "way",
    "score": 0.9088855385780334,
    "pixel_coords": [
      285,
      1305
    ]
  },
  {
    "name": "Sugar Shack J5-J5.7",
    "lat": 44.618945,
    "lon": -78.1237476,
    "osm_id": 1023801322,
    "osm_type": "way",
    "score": 0.9088855385780334,
    "pixel_coords": [
      285,
      1305
    ]
  },
  {
    "name": "Rabbit L22-L21",
    "lat": 44.6193356,
    "lon": -78.1230006,
    "osm_id": 1023801324,
    "osm_type": "way",
    "score": 0.9088855385780334,
    "pixel_coords": [
      285,
      1305
    ]
  },
  {
    "name": "Connector J5-L21",
    "lat": 44.6193556,
    "lon": -78.1233743,
    "osm_id": 1023801325,
    "osm_type": "way",
    "score": 0.9088855385780334,
    "pixel_coords": [
      285,
      1305
    ]
  },
  {
    "name": "Sugar Shack",
    "lat": 44.6203,
    "lon": -78.12432,
    "osm_id": 13578531,
    "osm_type": "relation",
    "score": 0.9088855385780334,
    "pixel_coords": [
      285,
      1305
    ]
  },
  {
    "name": "Roll",
    "lat": 44.619385,
    "lon": -78.12024,
    "osm_id": 13578532,
    "osm_type": "relation",
    "score": 0.9088855385780334,
    "pixel_coords": [
      285,
      1305
    ]
  },
  {
    "name": "Rattle",
    "lat": 44.619635,
    "lon": -78.121585,
    "osm_id": 13578533,
    "osm_type": "relation",
    "score": 0.9088855385780334,
    "pixel_coords": [
      285,
      1305
    ]
  },
  {
    "name": "Shake",
    "lat": 44.62023,
    "lon": -78.12166,
    "osm_id": 13578534,
    "osm_type": "relation",
    "score": 0.9088855385780334,
    "pixel_coords": [
      285,
      1305
    ]
  },
  {
    "name": "Laderach Loop",
    "lat": 44.61845,
    "lon": -78.119815,
    "osm_id": 13724623,
    "osm_type": "relation",
    "score": 0.9088855385780334,
    "pixel_coords": [
      285,
      1305
    ]
  },
  {
    "name": "Pine Loop",
    "lat": 44.9355608,
    "lon": -84.6285384,
    "osm_id": 1022445605,
    "osm_type": "way",
    "score": 0.9088621139526367,
    "pixel_coords": [
      247,
      524
    ]
  },
  {
    "name": "Badlands Long",
    "lat": 44.7792458,
    "lon": -84.6975034,
    "osm_id": 970347492,
    "osm_type": "way",
    "score": 0.9088356494903564,
    "pixel_coords": [
      266,
      516
    ]
  },
  {
    "name": "Kenner L7-L8",
    "lat": 44.616085,
    "lon": -78.12195,
    "osm_id": 1014208373,
    "osm_type": "way",
    "score": 0.9087120890617371,
    "pixel_coords": [
      286,
      1305
    ]
  },
  {
    "name": "Entrance",
    "lat": 44.620575,
    "lon": -78.132355,
    "osm_id": 1014208303,
    "osm_type": "way",
    "score": 0.9086707234382629,
    "pixel_coords": [
      285,
      1304
    ]
  },
  {
    "name": "Stadium S12-S13",
    "lat": 44.619735,
    "lon": -78.132755,
    "osm_id": 1014208304,
    "osm_type": "way",
    "score": 0.9086707234382629,
    "pixel_coords": [
      285,
      1304
    ]
  },
  {
    "name": "Stadium S13-S14",
    "lat": 44.619445,
    "lon": -78.13224,
    "osm_id": 1014208305,
    "osm_type": "way",
    "score": 0.9086707234382629,
    "pixel_coords": [
      285,
      1304
    ]
  },
  {
    "name": "Connector S13-S28",
    "lat": 44.619654,
    "lon": -78.1325929,
    "osm_id": 1014208306,
    "osm_type": "way",
    "score": 0.9086707234382629,
    "pixel_coords": [
      285,
      1304
    ]
  },
  {
    "name": "Stadium S27-S28",
    "lat": 44.619579,
    "lon": -78.1325179,
    "osm_id": 1014208307,
    "osm_type": "way",
    "score": 0.9086707234382629,
    "pixel_coords": [
      285,
      1304
    ]
  },
  {
    "name": "Connector S28-S31",
    "lat": 44.6196041,
    "lon": -78.1324579,
    "osm_id": 1014208308,
    "osm_type": "way",
    "score": 0.9086707234382629,
    "pixel_coords": [
      285,
      1304
    ]
  },
  {
    "name": "Stadium L2-S23",
    "lat": 44.62049,
    "lon": -78.1312976,
    "osm_id": 1014208310,
    "osm_type": "way",
    "score": 0.9086707234382629,
    "pixel_coords": [
      285,
      1304
    ]
  },
  {
    "name": "Stadium S25-S26",
    "lat": 44.619595,
    "lon": -78.13147,
    "osm_id": 1014208311,
    "osm_type": "way",
    "score": 0.9086707234382629,
    "pixel_coords": [
      285,
      1304
    ]
  },
  {
    "name": "Stadium S16-S18",
    "lat": 44.61979,
    "lon": -78.130985,
    "osm_id": 1014208312,
    "osm_type": "way",
    "score": 0.9086707234382629,
    "pixel_coords": [
      285,
      1304
    ]
  },
  {
    "name": "Stadium S15-S16",
    "lat": 44.619685,
    "lon": -78.13102,
    "osm_id": 1014208313,
    "osm_type": "way",
    "score": 0.9086707234382629,
    "pixel_coords": [
      285,
      1304
    ]
  },
  {
    "name": "Stadium S18-S21",
    "lat": 44.619975,
    "lon": -78.130895,
    "osm_id": 1014208314,
    "osm_type": "way",
    "score": 0.9086707234382629,
    "pixel_coords": [
      285,
      1304
    ]
  },
  {
    "name": "Stadium S26-S27",
    "lat": 44.61954,
    "lon": -78.132135,
    "osm_id": 1014208315,
    "osm_type": "way",
    "score": 0.9086707234382629,
    "pixel_coords": [
      285,
      1304
    ]
  },
  {
    "name": "Stadium S28-S29",
    "lat": 44.6199141,
    "lon": -78.1328429,
    "osm_id": 1014208316,
    "osm_type": "way",
    "score": 0.9086707234382629,
    "pixel_coords": [
      285,
      1304
    ]
  },
  {
    "name": "Stadium S34-S1",
    "lat": 44.619995,
    "lon": -78.132115,
    "osm_id": 1014208317,
    "osm_type": "way",
    "score": 0.9086707234382629,
    "pixel_coords": [
      285,
      1304
    ]
  },
  {
    "name": "Stadium S32-S34",
    "lat": 44.619875,
    "lon": -78.131925,
    "osm_id": 1014208318,
    "osm_type": "way",
    "score": 0.9086707234382629,
    "pixel_coords": [
      285,
      1304
    ]
  },
  {
    "name": "Stadium S30-S31",
    "lat": 44.6196331,
    "lon": -78.13241,
    "osm_id": 1014208319,
    "osm_type": "way",
    "score": 0.9086707234382629,
    "pixel_coords": [
      285,
      1304
    ]
  },
  {
    "name": "Stadium S29-S30",
    "lat": 44.6199431,
    "lon": -78.13272,
    "osm_id": 1014208320,
    "osm_type": "way",
    "score": 0.9086707234382629,
    "pixel_coords": [
      285,
      1304
    ]
  },
  {
    "name": "Stadium S31-S32",
    "lat": 44.619665,
    "lon": -78.132115,
    "osm_id": 1014208321,
    "osm_type": "way",
    "score": 0.9086707234382629,
    "pixel_coords": [
      285,
      1304
    ]
  },
  {
    "name": "Stadium S1-S2",
    "lat": 44.620165,
    "lon": -78.13256,
    "osm_id": 1014208324,
    "osm_type": "way",
    "score": 0.9086707234382629,
    "pixel_coords": [
      285,
      1304
    ]
  },
  {
    "name": "Rabbit L5-L6",
    "lat": 44.619645,
    "lon": -78.12965,
    "osm_id": 1014208339,
    "osm_type": "way",
    "score": 0.9086707234382629,
    "pixel_coords": [
      285,
      1304
    ]
  },
  {
    "name": "Rabbit L4-L5",
    "lat": 44.619915,
    "lon": -78.12994,
    "osm_id": 1014208340,
    "osm_type": "way",
    "score": 0.9086707234382629,
    "pixel_coords": [
      285,
      1304
    ]
  },
  {
    "name": "Connector S22-L4",
    "lat": 44.619975,
    "lon": -78.130265,
    "osm_id": 1014208355,
    "osm_type": "way",
    "score": 0.9086707234382629,
    "pixel_coords": [
      285,
      1304
    ]
  },
  {
    "name": "Stadium S21-S22",
    "lat": 44.62003,
    "lon": -78.13061,
    "osm_id": 1014208356,
    "osm_type": "way",
    "score": 0.9086707234382629,
    "pixel_coords": [
      285,
      1304
    ]
  },
  {
    "name": "Rabbit L2-L3",
    "lat": 44.6203308,
    "lon": -78.1307565,
    "osm_id": 1014208358,
    "osm_type": "way",
    "score": 0.9086707234382629,
    "pixel_coords": [
      285,
      1304
    ]
  },
  {
    "name": "Rabbit H-L1",
    "lat": 44.620555,
    "lon": -78.13184,
    "osm_id": 1014208359,
    "osm_type": "way",
    "score": 0.9086707234382629,
    "pixel_coords": [
      285,
      1304
    ]
  },
  {
    "name": "Stadium S24-S25",
    "lat": 44.619765,
    "lon": -78.13127,
    "osm_id": 1014208360,
    "osm_type": "way",
    "score": 0.9086707234382629,
    "pixel_coords": [
      285,
      1304
    ]
  },
  {
    "name": "Butter T2-T20",
    "lat": 44.622255,
    "lon": -78.13018,
    "osm_id": 1014208361,
    "osm_type": "way",
    "score": 0.9086707234382629,
    "pixel_coords": [
      285,
      1304
    ]
  },
  {
    "name": "Peanut T20-T19",
    "lat": 44.622485,
    "lon": -78.13025,
    "osm_id": 1014208362,
    "osm_type": "way",
    "score": 0.9086707234382629,
    "pixel_coords": [
      285,
      1304
    ]
  },
  {
    "name": "Peanut T19-J2",
    "lat": 44.62337,
    "lon": -78.128015,
    "osm_id": 1014208363,
    "osm_type": "way",
    "score": 0.9086707234382629,
    "pixel_coords": [
      285,
      1304
    ]
  },
  {
    "name": "Beaver H-T1",
    "lat": 44.62059,
    "lon": -78.131995,
    "osm_id": 1014208378,
    "osm_type": "way",
    "score": 0.9086707234382629,
    "pixel_coords": [
      285,
      1304
    ]
  },
  {
    "name": "Connector H-S1",
    "lat": 44.620275,
    "lon": -78.132135,
    "osm_id": 1014208379,
    "osm_type": "way",
    "score": 0.9086707234382629,
    "pixel_coords": [
      285,
      1304
    ]
  },
  {
    "name": "Beaver T2-T3",
    "lat": 44.62195,
    "lon": -78.12896,
    "osm_id": 1014208382,
    "osm_type": "way",
    "score": 0.9086707234382629,
    "pixel_coords": [
      285,
      1304
    ]
  },
  {
    "name": "Beaver T1-T2",
    "lat": 44.6214,
    "lon": -78.13104,
    "osm_id": 1014208383,
    "osm_type": "way",
    "score": 0.9086707234382629,
    "pixel_coords": [
      285,
      1304
    ]
  },
  {
    "name": "Jam L3-J1",
    "lat": 44.620245,
    "lon": -78.129445,
    "osm_id": 1014208384,
    "osm_type": "way",
    "score": 0.9086707234382629,
    "pixel_coords": [
      285,
      1304
    ]
  },
  {
    "name": "Olympic L5-J1",
    "lat": 44.62014,
    "lon": -78.129105,
    "osm_id": 1014208385,
    "osm_type": "way",
    "score": 0.9086707234382629,
    "pixel_coords": [
      285,
      1304
    ]
  },
  {
    "name": "Stadium S16-S17",
    "lat": 44.619715,
    "lon": -78.13073,
    "osm_id": 1014208386,
    "osm_type": "way",
    "score": 0.9086707234382629,
    "pixel_coords": [
      285,
      1304
    ]
  },
  {
    "name": "Connector S2-S9",
    "lat": 44.620275,
    "lon": -78.13306,
    "osm_id": 1014208387,
    "osm_type": "way",
    "score": 0.9086707234382629,
    "pixel_coords": [
      285,
      1304
    ]
  },
  {
    "name": "Stadium S27-S31",
    "lat": 44.619555,
    "lon": -78.13243,
    "osm_id": 1014208388,
    "osm_type": "way",
    "score": 0.9086707234382629,
    "pixel_coords": [
      285,
      1304
    ]
  },
  {
    "name": "Connector S24-S19",
    "lat": 44.619945,
    "lon": -78.131285,
    "osm_id": 1014208389,
    "osm_type": "way",
    "score": 0.9086707234382629,
    "pixel_coords": [
      285,
      1304
    ]
  },
  {
    "name": "Connector S32-S33",
    "lat": 44.619875,
    "lon": -78.13178,
    "osm_id": 1014208390,
    "osm_type": "way",
    "score": 0.9086707234382629,
    "pixel_coords": [
      285,
      1304
    ]
  },
  {
    "name": "Connector S29-S35",
    "lat": 44.62004,
    "lon": -78.13272,
    "osm_id": 1014208391,
    "osm_type": "way",
    "score": 0.9086707234382629,
    "pixel_coords": [
      285,
      1304
    ]
  },
  {
    "name": "Rabbit L3-L4",
    "lat": 44.620025,
    "lon": -78.13019,
    "osm_id": 1014208392,
    "osm_type": "way",
    "score": 0.9086707234382629,
    "pixel_coords": [
      285,
      1304
    ]
  },
  {
    "name": "Connector S14-S11",
    "lat": 44.6192154,
    "lon": -78.1319395,
    "osm_id": 1014208393,
    "osm_type": "way",
    "score": 0.9086707234382629,
    "pixel_coords": [
      285,
      1304
    ]
  },
  {
    "name": "Connector S30-S35",
    "lat": 44.619783,
    "lon": -78.13245,
    "osm_id": 1014208395,
    "osm_type": "way",
    "score": 0.9086707234382629,
    "pixel_coords": [
      285,
      1304
    ]
  },
  {
    "name": "Connector S33-S23",
    "lat": 44.6201592,
    "lon": -78.1315112,
    "osm_id": 1014208396,
    "osm_type": "way",
    "score": 0.9086707234382629,
    "pixel_coords": [
      285,
      1304
    ]
  },
  {
    "name": "Connector S24-S26",
    "lat": 44.6198,
    "lon": -78.13159,
    "osm_id": 1014208397,
    "osm_type": "way",
    "score": 0.9086707234382629,
    "pixel_coords": [
      285,
      1304
    ]
  },
  {
    "name": "Connector S33-S24",
    "lat": 44.61997,
    "lon": -78.13155,
    "osm_id": 1014208398,
    "osm_type": "way",
    "score": 0.9086707234382629,
    "pixel_coords": [
      285,
      1304
    ]
  },
  {
    "name": "Stadium S20-S21",
    "lat": 44.6202405,
    "lon": -78.1310026,
    "osm_id": 1014208399,
    "osm_type": "way",
    "score": 0.9086707234382629,
    "pixel_coords": [
      285,
      1304
    ]
  },
  {
    "name": "Connector S17-S22",
    "lat": 44.619885,
    "lon": -78.13055,
    "osm_id": 1014208400,
    "osm_type": "way",
    "score": 0.9086707234382629,
    "pixel_coords": [
      285,
      1304
    ]
  },
  {
    "name": "Connector L1-T1",
    "lat": 44.620625,
    "lon": -78.131805,
    "osm_id": 1014208401,
    "osm_type": "way",
    "score": 0.9086707234382629,
    "pixel_coords": [
      285,
      1304
    ]
  },
  {
    "name": "Connector S10-S12",
    "lat": 44.6199024,
    "lon": -78.1330693,
    "osm_id": 1014208403,
    "osm_type": "way",
    "score": 0.9086707234382629,
    "pixel_coords": [
      285,
      1304
    ]
  },
  {
    "name": "Stadium S18-S19",
    "lat": 44.619875,
    "lon": -78.131065,
    "osm_id": 1014208404,
    "osm_type": "way",
    "score": 0.9086707234382629,
    "pixel_coords": [
      285,
      1304
    ]
  },
  {
    "name": "Connector S25-S15",
    "lat": 44.61959,
    "lon": -78.13109,
    "osm_id": 1014208406,
    "osm_type": "way",
    "score": 0.9086707234382629,
    "pixel_coords": [
      285,
      1304
    ]
  },
  {
    "name": "Connector S23-L1",
    "lat": 44.6204742,
    "lon": -78.1314862,
    "osm_id": 1014208407,
    "osm_type": "way",
    "score": 0.9086707234382629,
    "pixel_coords": [
      285,
      1304
    ]
  },
  {
    "name": "Connector S34-S33",
    "lat": 44.619955,
    "lon": -78.131845,
    "osm_id": 1014208414,
    "osm_type": "way",
    "score": 0.9086707234382629,
    "pixel_coords": [
      285,
      1304
    ]
  },
  {
    "name": "Stadium S19-S20",
    "lat": 44.6201388,
    "lon": -78.1312143,
    "osm_id": 1014208415,
    "osm_type": "way",
    "score": 0.9086707234382629,
    "pixel_coords": [
      285,
      1304
    ]
  },
  {
    "name": "Stadium S17-S18",
    "lat": 44.61982,
    "lon": -78.130835,
    "osm_id": 1014208416,
    "osm_type": "way",
    "score": 0.9086707234382629,
    "pixel_coords": [
      285,
      1304
    ]
  },
  {
    "name": "Stadium S10-S11",
    "lat": 44.6195224,
    "lon": -78.1326544,
    "osm_id": 1014208418,
    "osm_type": "way",
    "score": 0.9086707234382629,
    "pixel_coords": [
      285,
      1304
    ]
  },
  {
    "name": "Rabbit L6-L7",
    "lat": 44.618465,
    "lon": -78.126765,
    "osm_id": 1014208425,
    "osm_type": "way",
    "score": 0.9086707234382629,
    "pixel_coords": [
      285,
      1304
    ]
  },
  {
    "name": "Peanut T1-T20",
    "lat": 44.621515,
    "lon": -78.13136,
    "osm_id": 1014208427,
    "osm_type": "way",
    "score": 0.9086707234382629,
    "pixel_coords": [
      285,
      1304
    ]
  },
  {
    "name": "Olympic J1-L7",
    "lat": 44.61958,
    "lon": -78.12629,
    "osm_id": 1014208429,
    "osm_type": "way",
    "score": 0.9086707234382629,
    "pixel_coords": [
      285,
      1304
    ]
  },
  {
    "name": "Jam T3-J2",
    "lat": 44.622255,
    "lon": -78.12694,
    "osm_id": 1014208432,
    "osm_type": "way",
    "score": 0.9086707234382629,
    "pixel_coords": [
      285,
      1304
    ]
  },
  {
    "name": "High Road J2-J3",
    "lat": 44.622475,
    "lon": -78.125215,
    "osm_id": 1014208433,
    "osm_type": "way",
    "score": 0.9086707234382629,
    "pixel_coords": [
      285,
      1304
    ]
  },
  {
    "name": "Butter L2-T2",
    "lat": 44.6213808,
    "lon": -78.1306864,
    "osm_id": 1014208436,
    "osm_type": "way",
    "score": 0.9086707234382629,
    "pixel_coords": [
      285,
      1304
    ]
  },
  {
    "name": "Church's Hill",
    "lat": 44.61901,
    "lon": -78.13159,
    "osm_id": 1014208438,
    "osm_type": "way",
    "score": 0.9086707234382629,
    "pixel_coords": [
      285,
      1304
    ]
  },
  {
    "name": "Beaver T3-T4",
    "lat": 44.62192,
    "lon": -78.126025,
    "osm_id": 1014208439,
    "osm_type": "way",
    "score": 0.9086707234382629,
    "pixel_coords": [
      285,
      1304
    ]
  },
  {
    "name": "Jam J1-T3",
    "lat": 44.621115,
    "lon": -78.12828,
    "osm_id": 1014367941,
    "osm_type": "way",
    "score": 0.9086707234382629,
    "pixel_coords": [
      285,
      1304
    ]
  },
  {
    "name": "Rabbit L1-L2",
    "lat": 44.62061,
    "lon": -78.1314614,
    "osm_id": 1023342186,
    "osm_type": "way",
    "score": 0.9086707234382629,
    "pixel_coords": [
      285,
      1304
    ]
  },
  {
    "name": "Stadium S23-S24",
    "lat": 44.6201642,
    "lon": -78.1313612,
    "osm_id": 1025079396,
    "osm_type": "way",
    "score": 0.9086707234382629,
    "pixel_coords": [
      285,
      1304
    ]
  },
  {
    "name": "Connector S23-S20",
    "lat": 44.620358,
    "lon": -78.1312488,
    "osm_id": 1025532752,
    "osm_type": "way",
    "score": 0.9086707234382629,
    "pixel_coords": [
      285,
      1304
    ]
  },
  {
    "name": "Connector S35-S1",
    "lat": 44.619955,
    "lon": -78.132345,
    "osm_id": 1025726825,
    "osm_type": "way",
    "score": 0.9086707234382629,
    "pixel_coords": [
      285,
      1304
    ]
  },
  {
    "name": "Stadium S11-S12",
    "lat": 44.6195054,
    "lon": -78.1325844,
    "osm_id": 1029413358,
    "osm_type": "way",
    "score": 0.9086707234382629,
    "pixel_coords": [
      285,
      1304
    ]
  },
  {
    "name": "Stadium S14-S15",
    "lat": 44.619415,
    "lon": -78.13143,
    "osm_id": 1029413359,
    "osm_type": "way",
    "score": 0.9086707234382629,
    "pixel_coords": [
      285,
      1304
    ]
  },
  {
    "name": "LED Loop",
    "lat": 44.62,
    "lon": -78.13263,
    "osm_id": 13578529,
    "osm_type": "relation",
    "score": 0.9086707234382629,
    "pixel_coords": [
      285,
      1304
    ]
  },
  {
    "name": "Butter",
    "lat": 44.6214958,
    "lon": -78.1306864,
    "osm_id": 13578530,
    "osm_type": "relation",
    "score": 0.9086707234382629,
    "pixel_coords": [
      285,
      1304
    ]
  },
  {
    "name": "Beaver",
    "lat": 44.621405,
    "lon": -78.126165,
    "osm_id": 13578542,
    "osm_type": "relation",
    "score": 0.9086707234382629,
    "pixel_coords": [
      285,
      1304
    ]
  },
  {
    "name": "Jam",
    "lat": 44.621385,
    "lon": -78.12816,
    "osm_id": 13578543,
    "osm_type": "relation",
    "score": 0.9086707234382629,
    "pixel_coords": [
      285,
      1304
    ]
  },
  {
    "name": "Peanut",
    "lat": 44.6224,
    "lon": -78.12914,
    "osm_id": 13580606,
    "osm_type": "relation",
    "score": 0.9086707234382629,
    "pixel_coords": [
      285,
      1304
    ]
  },
  {
    "name": "Orange Route",
    "lat": 44.619575,
    "lon": -78.125685,
    "osm_id": 13708629,
    "osm_type": "relation",
    "score": 0.9086707234382629,
    "pixel_coords": [
      285,
      1304
    ]
  },
  {
    "name": "Red Route",
    "lat": 44.62034,
    "lon": -78.125685,
    "osm_id": 13708630,
    "osm_type": "relation",
    "score": 0.9086707234382629,
    "pixel_coords": [
      285,
      1304
    ]
  },
  {
    "name": "Blue Route",
    "lat": 44.62034,
    "lon": -78.125685,
    "osm_id": 13708631,
    "osm_type": "relation",
    "score": 0.9086707234382629,
    "pixel_coords": [
      285,
      1304
    ]
  },
  {
    "name": "7.5km Race Course",
    "lat": 44.619575,
    "lon": -78.125685,
    "osm_id": 13727012,
    "osm_type": "relation",
    "score": 0.9086707234382629,
    "pixel_coords": [
      285,
      1304
    ]
  },
  {
    "name": "5km Race Course",
    "lat": 44.620175,
    "lon": -78.127375,
    "osm_id": 13727013,
    "osm_type": "relation",
    "score": 0.9086707234382629,
    "pixel_coords": [
      285,
      1304
    ]
  },
  {
    "name": "3.75km Race Course",
    "lat": 44.621585,
    "lon": -78.130115,
    "osm_id": 13727014,
    "osm_type": "relation",
    "score": 0.9086707234382629,
    "pixel_coords": [
      285,
      1304
    ]
  },
  {
    "name": "2.5km Race Course",
    "lat": 44.62,
    "lon": -78.13145,
    "osm_id": 13727015,
    "osm_type": "relation",
    "score": 0.9086707234382629,
    "pixel_coords": [
      285,
      1304
    ]
  },
  {
    "name": "1.5km Race Course",
    "lat": 44.62,
    "lon": -78.132695,
    "osm_id": 13727016,
    "osm_type": "relation",
    "score": 0.9086707234382629,
    "pixel_coords": [
      285,
      1304
    ]
  },
  {
    "name": "Stadium S9-S10",
    "lat": 44.6201224,
    "lon": -78.1332543,
    "osm_id": 1014208325,
    "osm_type": "way",
    "score": 0.9086000919342041,
    "pixel_coords": [
      285,
      1303
    ]
  },
  {
    "name": "Stadium S4-S8",
    "lat": 44.620385,
    "lon": -78.134195,
    "osm_id": 1014208326,
    "osm_type": "way",
    "score": 0.9086000919342041,
    "pixel_coords": [
      285,
      1303
    ]
  },
  {
    "name": "Stadium S6-S4",
    "lat": 44.61995,
    "lon": -78.134175,
    "osm_id": 1014208327,
    "osm_type": "way",
    "score": 0.9086000919342041,
    "pixel_coords": [
      285,
      1303
    ]
  },
  {
    "name": "Stadium S4-S5",
    "lat": 44.61952,
    "lon": -78.13393,
    "osm_id": 1014208328,
    "osm_type": "way",
    "score": 0.9086000919342041,
    "pixel_coords": [
      285,
      1303
    ]
  },
  {
    "name": "Stadium S5-S6",
    "lat": 44.619575,
    "lon": -78.13387,
    "osm_id": 1014208329,
    "osm_type": "way",
    "score": 0.9086000919342041,
    "pixel_coords": [
      285,
      1303
    ]
  },
  {
    "name": "Stadium S7-S6",
    "lat": 44.61995,
    "lon": -78.133875,
    "osm_id": 1014208330,
    "osm_type": "way",
    "score": 0.9086000919342041,
    "pixel_coords": [
      285,
      1303
    ]
  },
  {
    "name": "Stadium S3-S4",
    "lat": 44.62047,
    "lon": -78.1341619,
    "osm_id": 1014208331,
    "osm_type": "way",
    "score": 0.9086000919342041,
    "pixel_coords": [
      285,
      1303
    ]
  },
  {
    "name": "Stadium S6-S7",
    "lat": 44.61957,
    "lon": -78.13346,
    "osm_id": 1014208332,
    "osm_type": "way",
    "score": 0.9086000919342041,
    "pixel_coords": [
      285,
      1303
    ]
  },
  {
    "name": "Connector S7-S10",
    "lat": 44.6199874,
    "lon": -78.1334543,
    "osm_id": 1014208405,
    "osm_type": "way",
    "score": 0.9086000919342041,
    "pixel_coords": [
      285,
      1303
    ]
  },
  {
    "name": "Stadium S8-S9",
    "lat": 44.620515,
    "lon": -78.133645,
    "osm_id": 1025726826,
    "osm_type": "way",
    "score": 0.9086000919342041,
    "pixel_coords": [
      285,
      1303
    ]
  },
  {
    "name": "Connector S3-S8",
    "lat": 44.6208168,
    "lon": -78.1339719,
    "osm_id": 1025726827,
    "osm_type": "way",
    "score": 0.9086000919342041,
    "pixel_coords": [
      285,
      1303
    ]
  },
  {
    "name": "Stadium S2-S3",
    "lat": 44.6205668,
    "lon": -78.1333869,
    "osm_id": 1025726828,
    "osm_type": "way",
    "score": 0.9086000919342041,
    "pixel_coords": [
      285,
      1303
    ]
  },
  {
    "name": "Maple Ridge Trail",
    "lat": 44.9395035,
    "lon": -84.6394188,
    "osm_id": 1022445595,
    "osm_type": "way",
    "score": 0.908592939376831,
    "pixel_coords": [
      247,
      523
    ]
  },
  {
    "name": "South Lake Trail",
    "lat": 44.9416657,
    "lon": -84.6385578,
    "osm_id": 1022445602,
    "osm_type": "way",
    "score": 0.908592939376831,
    "pixel_coords": [
      247,
      523
    ]
  },
  {
    "name": "Trail_970347456",
    "lat": 44.7735761,
    "lon": -84.7067277,
    "osm_id": 970347456,
    "osm_type": "way",
    "score": 0.9084250330924988,
    "pixel_coords": [
      267,
      515
    ]
  },
  {
    "name": "Trail_970347493",
    "lat": 44.7717234,
    "lon": -84.7065536,
    "osm_id": 970347493,
    "osm_type": "way",
    "score": 0.9084250330924988,
    "pixel_coords": [
      267,
      515
    ]
  },
  {
    "name": "Trail_1227704987",
    "lat": 44.7726627,
    "lon": -84.7068516,
    "osm_id": 1227704987,
    "osm_type": "way",
    "score": 0.9084250330924988,
    "pixel_coords": [
      267,
      515
    ]
  },
  {
    "name": "North Roberts Road",
    "lat": 44.7718563,
    "lon": -84.7062526,
    "osm_id": 1227705007,
    "osm_type": "way",
    "score": 0.9084250330924988,
    "pixel_coords": [
      267,
      515
    ]
  },
  {
    "name": "West Townline Road",
    "lat": 44.7718545,
    "lon": -84.7016216,
    "osm_id": 1227705009,
    "osm_type": "way",
    "score": 0.9084250330924988,
    "pixel_coords": [
      267,
      515
    ]
  },
  {
    "name": "Pines Loop Connector",
    "lat": 44.7750199,
    "lon": -84.7025695,
    "osm_id": 1239748785,
    "osm_type": "way",
    "score": 0.9084250330924988,
    "pixel_coords": [
      267,
      515
    ]
  },
  {
    "name": "Trail_1451381252",
    "lat": 44.7749171,
    "lon": -84.7032269,
    "osm_id": 1451381252,
    "osm_type": "way",
    "score": 0.9084250330924988,
    "pixel_coords": [
      267,
      515
    ]
  },
  {
    "name": "Deadman's Drop",
    "lat": 44.7743131,
    "lon": -84.7087808,
    "osm_id": 969844192,
    "osm_type": "way",
    "score": 0.9082686305046082,
    "pixel_coords": [
      267,
      514
    ]
  },
  {
    "name": "Trail_970347418",
    "lat": 44.772396,
    "lon": -84.7089622,
    "osm_id": 970347418,
    "osm_type": "way",
    "score": 0.9082686305046082,
    "pixel_coords": [
      267,
      514
    ]
  },
  {
    "name": "Trail_970347419",
    "lat": 44.7739946,
    "lon": -84.7091054,
    "osm_id": 970347419,
    "osm_type": "way",
    "score": 0.9082686305046082,
    "pixel_coords": [
      267,
      514
    ]
  },
  {
    "name": "Trail_970347494",
    "lat": 44.7745577,
    "lon": -84.7109212,
    "osm_id": 970347494,
    "osm_type": "way",
    "score": 0.9082686305046082,
    "pixel_coords": [
      267,
      514
    ]
  },
  {
    "name": "Ski Brule",
    "lat": 46.0284933,
    "lon": -88.7056511,
    "osm_id": 756340755,
    "osm_type": "way",
    "score": 0.9077183604240417,
    "pixel_coords": [
      116,
      35
    ]
  },
  {
    "name": "Two-way Trail",
    "lat": 44.7807864,
    "lon": -84.7077352,
    "osm_id": 969844165,
    "osm_type": "way",
    "score": 0.9072160720825195,
    "pixel_coords": [
      266,
      515
    ]
  },
  {
    "name": "Badlands",
    "lat": 44.7808393,
    "lon": -84.7002575,
    "osm_id": 969844169,
    "osm_type": "way",
    "score": 0.9072160720825195,
    "pixel_coords": [
      266,
      515
    ]
  },
  {
    "name": "Rollercoaster",
    "lat": 44.7805544,
    "lon": -84.7038724,
    "osm_id": 969844186,
    "osm_type": "way",
    "score": 0.9072160720825195,
    "pixel_coords": [
      266,
      515
    ]
  },
  {
    "name": "Ridge",
    "lat": 44.7827676,
    "lon": -84.703633,
    "osm_id": 969844187,
    "osm_type": "way",
    "score": 0.9072160720825195,
    "pixel_coords": [
      266,
      515
    ]
  },
  {
    "name": "Pancake",
    "lat": 44.7819727,
    "lon": -84.7056728,
    "osm_id": 969844188,
    "osm_type": "way",
    "score": 0.9072160720825195,
    "pixel_coords": [
      266,
      515
    ]
  },
  {
    "name": "Valley",
    "lat": 44.7831353,
    "lon": -84.7025333,
    "osm_id": 969844189,
    "osm_type": "way",
    "score": 0.9072160720825195,
    "pixel_coords": [
      266,
      515
    ]
  },
  {
    "name": "Trail_970347412",
    "lat": 44.7803076,
    "lon": -84.7061147,
    "osm_id": 970347412,
    "osm_type": "way",
    "score": 0.9072160720825195,
    "pixel_coords": [
      266,
      515
    ]
  },
  {
    "name": "Badlands Short",
    "lat": 44.7796192,
    "lon": -84.7001122,
    "osm_id": 970347415,
    "osm_type": "way",
    "score": 0.9072160720825195,
    "pixel_coords": [
      266,
      515
    ]
  },
  {
    "name": "Forbush Corner Nordic Cross Country Skiing Center",
    "lat": 44.7783853,
    "lon": -84.705018,
    "osm_id": 1009742339,
    "osm_type": "way",
    "score": 0.9072160720825195,
    "pixel_coords": [
      266,
      515
    ]
  },
  {
    "name": "Pine Loops Connector",
    "lat": 44.7770761,
    "lon": -84.7054721,
    "osm_id": 1239748780,
    "osm_type": "way",
    "score": 0.9072160720825195,
    "pixel_coords": [
      266,
      515
    ]
  },
  {
    "name": "Trail_1351229557",
    "lat": 44.7795995,
    "lon": -84.7059792,
    "osm_id": 1351229557,
    "osm_type": "way",
    "score": 0.9072160720825195,
    "pixel_coords": [
      266,
      515
    ]
  },
  {
    "name": "Trail_1451381253",
    "lat": 44.7756655,
    "lon": -84.7034108,
    "osm_id": 1451381253,
    "osm_type": "way",
    "score": 0.9072160720825195,
    "pixel_coords": [
      266,
      515
    ]
  },
  {
    "name": "Snowmaking Loop",
    "lat": 44.783616,
    "lon": -84.701799,
    "osm_id": 969844168,
    "osm_type": "way",
    "score": 0.9063606262207031,
    "pixel_coords": [
      265,
      515
    ]
  },