[
  {
    "name": "Trail_1077962861",
    "lat": 46.3503001,
    "lon": -79.2917751,
    "osm_id": 1077962861,
    "osm_type": "way",
    "score": 0.7969306111335754,
    "pixel_coords": [
      32,
      441
    ]
  },
  {
    "name": "Trail_1077962862",
    "lat": 46.3411071,
    "lon": -79.2900393,
    "osm_id": 1077962862,
    "osm_type": "way",
    "score": 0.7969306111335754,
    "pixel_coords": [
      32,
      441
    ]
  },
  {
    "name": "Access Road",
    "lat": 46.3439743,
    "lon": -79.2846392,
    "osm_id": 1077962863,
    "osm_type": "way",
    "score": 0.7969306111335754,
    "pixel_coords": [
      32,
      441
    ]
  },
  {
    "name": "Trail_1077962870",
    "lat": 46.3467993,
    "lon": -79.2812481,
    "osm_id": 1077962870,
    "osm_type": "way",
    "score": 0.7969306111335754,
    "pixel_coords": [
      32,
      441
    ]
  },
  {
    "name": "Egypt Valley - Section 3",
    "lat": 43.0182312,
    "lon": -85.4860279,
    "osm_id": 190683099,
    "osm_type": "way",
    "score": 0.7765925526618958,
    "pixel_coords": [
      199,
      159
    ]
  },
  {
    "name": "Hawthorne",
    "lat": 39.0250576,
    "lon": -79.416964,
    "osm_id": 323914720,
    "osm_type": "way",
    "score": 0.7734969854354858,
    "pixel_coords": [
      398,
      435
    ]
  },
  {
    "name": "Trail_828576755",
    "lat": 39.0270874,
    "lon": -79.4151679,
    "osm_id": 828576755,
    "osm_type": "way",
    "score": 0.7734969854354858,
    "pixel_coords": [
      398,
      435
    ]
  },
  {
    "name": "Double Poler's Dream",
    "lat": 39.0201287,
    "lon": -79.4242101,
    "osm_id": 900201892,
    "osm_type": "way",
    "score": 0.7734969854354858,
    "pixel_coords": [
      398,
      435
    ]
  },
  {
    "name": "Trail_900201894",
    "lat": 39.020059,
    "lon": -79.4252654,
    "osm_id": 900201894,
    "osm_type": "way",
    "score": 0.7734969854354858,
    "pixel_coords": [
      398,
      435
    ]
  },
  {
    "name": "Bamboo Flats",
    "lat": 39.0223824,
    "lon": -79.4232966,
    "osm_id": 900201895,
    "osm_type": "way",
    "score": 0.7734969854354858,
    "pixel_coords": [
      398,
      435
    ]
  },
  {
    "name": "Bonneville",
    "lat": 39.0215312,
    "lon": -79.4234876,
    "osm_id": 900201896,
    "osm_type": "way",
    "score": 0.7734969854354858,
    "pixel_coords": [
      398,
      435
    ]
  },
  {
    "name": "Trail_900201897",
    "lat": 39.0203335,
    "lon": -79.4235667,
    "osm_id": 900201897,
    "osm_type": "way",
    "score": 0.7734969854354858,
    "pixel_coords": [
      398,
      435
    ]
  },
  {
    "name": "Trail_900201898",
    "lat": 39.0206838,
    "lon": -79.4218973,
    "osm_id": 900201898,
    "osm_type": "way",
    "score": 0.7734969854354858,
    "pixel_coords": [
      398,
      435
    ]
  },
  {
    "name": "Bald Knob",
    "lat": 39.0096914,
    "lon": -79.4241756,
    "osm_id": 323914702,
    "osm_type": "way",
    "score": 0.7686604857444763,
    "pixel_coords": [
      399,
      435
    ]
  },
  {
    "name": "Bartons Bend",
    "lat": 39.0164848,
    "lon": -79.4212183,
    "osm_id": 323914704,
    "osm_type": "way",
    "score": 0.7686604857444763,
    "pixel_coords": [
      399,
      435
    ]
  },
  {
    "name": "Bartons Loop",
    "lat": 39.0148942,
    "lon": -79.4205122,
    "osm_id": 323914705,
    "osm_type": "way",
    "score": 0.7686604857444763,
    "pixel_coords": [
      399,
      435
    ]
  },
  {
    "name": "Beech Lick",
    "lat": 39.0082271,
    "lon": -79.4209207,
    "osm_id": 323914708,
    "osm_type": "way",
    "score": 0.7686604857444763,
    "pixel_coords": [
      399,
      435
    ]
  },
  {
    "name": "Boundary",
    "lat": 39.0092833,
    "lon": -79.4253724,
    "osm_id": 323914710,
    "osm_type": "way",
    "score": 0.7686604857444763,
    "pixel_coords": [
      399,
      435
    ]
  },
  {
    "name": "Crosscut",
    "lat": 39.0197685,
    "lon": -79.4155252,
    "osm_id": 323914712,
    "osm_type": "way",
    "score": 0.7686604857444763,
    "pixel_coords": [
      399,
      435
    ]
  },
  {
    "name": "Double Trouble",
    "lat": 39.0136581,
    "lon": -79.4246009,
    "osm_id": 323914713,
    "osm_type": "way",
    "score": 0.7686604857444763,
    "pixel_coords": [
      399,
      435
    ]
  },
  {
    "name": "Falls Overlook",
    "lat": 39.014602,
    "lon": -79.4182305,
    "osm_id": 323914714,
    "osm_type": "way",
    "score": 0.7686604857444763,
    "pixel_coords": [
      399,
      435
    ]
  },
  {
    "name": "Fern Gully Spur",
    "lat": 39.012439,
    "lon": -79.4113302,
    "osm_id": 323914715,
    "osm_type": "way",
    "score": 0.7686604857444763,
    "pixel_coords": [
      399,
      435
    ]
  },
  {
    "name": "Fern Gully",
    "lat": 39.0136912,
    "lon": -79.4099047,
    "osm_id": 323914716,
    "osm_type": "way",
    "score": 0.7686604857444763,
    "pixel_coords": [
      399,
      435
    ]
  },
  {
    "name": "Freeland Run",
    "lat": 39.0182366,
    "lon": -79.4180356,
    "osm_id": 323914718,
    "osm_type": "way",
    "score": 0.7686604857444763,
    "pixel_coords": [
      399,
      435
    ]
  },
  {
    "name": "Gandalfs Glade",
    "lat": 39.0184829,
    "lon": -79.4274756,
    "osm_id": 323914719,
    "osm_type": "way",
    "score": 0.7686604857444763,
    "pixel_coords": [
      399,
      435
    ]
  },
  {
    "name": "Heartland",
    "lat": 39.017183,
    "lon": -79.4123403,
    "osm_id": 323914721,
    "osm_type": "way",
    "score": 0.7686604857444763,
    "pixel_coords": [
      399,
      435
    ]
  },
  {
    "name": "Liftshack Ascent",
    "lat": 39.0161603,
    "lon": -79.4215764,
    "osm_id": 323914722,
    "osm_type": "way",
    "score": 0.7686604857444763,
    "pixel_coords": [
      399,
      435
    ]
  },
  {
    "name": "Milksnake Run",
    "lat": 39.0169949,
    "lon": -79.4245248,
    "osm_id": 323914723,
    "osm_type": "way",
    "score": 0.7686604857444763,
    "pixel_coords": [
      399,
      435
    ]
  },
  {
    "name": "Plum Orchard",
    "lat": 39.0169304,
    "lon": -79.4269487,
    "osm_id": 323914724,
    "osm_type": "way",
    "score": 0.7686604857444763,
    "pixel_coords": [
      399,
      435
    ]
  },
  {
    "name": "Powderline Spur",
    "lat": 39.0096219,
    "lon": -79.4188357,
    "osm_id": 323914725,
    "osm_type": "way",
    "score": 0.7686604857444763,
    "pixel_coords": [
      399,
      435
    ]
  },
  {
    "name": "Powderline",
    "lat": 39.0093751,
    "lon": -79.4170486,
    "osm_id": 323914726,
    "osm_type": "way",
    "score": 0.7686604857444763,
    "pixel_coords": [
      399,
      435
    ]
  },
  {
    "name": "Springer Orchard",
    "lat": 39.0164327,
    "lon": -79.428139,
    "osm_id": 323914733,
    "osm_type": "way",
    "score": 0.7686604857444763,
    "pixel_coords": [
      399,
      435
    ]
  },
  {
    "name": "Three Mile",
    "lat": 39.0111904,
    "lon": -79.4173306,
    "osm_id": 323914735,
    "osm_type": "way",
    "score": 0.7686604857444763,
    "pixel_coords": [
      399,
      435
    ]
  },
  {
    "name": "Upper Falls Spur",
    "lat": 39.0122257,
    "lon": -79.4212295,
    "osm_id": 323914737,
    "osm_type": "way",
    "score": 0.7686604857444763,
    "pixel_coords": [
      399,
      435
    ]
  },
  {
    "name": "Upper Falls Ski Tour",
    "lat": 39.0130014,
    "lon": -79.4180822,
    "osm_id": 323914739,
    "osm_type": "way",
    "score": 0.7686604857444763,
    "pixel_coords": [
      399,
      435
    ]
  },
  {
    "name": "Upper Pucker",
    "lat": 39.0096875,
    "lon": -79.4190341,
    "osm_id": 323914740,
    "osm_type": "way",
    "score": 0.7686604857444763,
    "pixel_coords": [
      399,
      435
    ]
  },
  {
    "name": "Upper Springer Spur",
    "lat": 39.0100384,
    "lon": -79.4292171,
    "osm_id": 323914741,
    "osm_type": "way",
    "score": 0.7686604857444763,
    "pixel_coords": [
      399,
      435
    ]
  },
  {
    "name": "Upper Springer",
    "lat": 39.0121557,
    "lon": -79.427707,
    "osm_id": 323914742,
    "osm_type": "way",
    "score": 0.7686604857444763,
    "pixel_coords": [
      399,
      435
    ]
  },
  {
    "name": "Weiss Knob Ascent",
    "lat": 39.0139063,
    "lon": -79.4225229,
    "osm_id": 323914743,
    "osm_type": "way",
    "score": 0.7686604857444763,
    "pixel_coords": [
      399,
      435
    ]
  },
  {
    "name": "Weiss Knob",
    "lat": 39.0144469,
    "lon": -79.4223536,
    "osm_id": 323914744,
    "osm_type": "way",
    "score": 0.7686604857444763,
    "pixel_coords": [
      399,
      435
    ]
  },
  {
    "name": "Trail_323914745",
    "lat": 39.013333,
    "lon": -79.4298024,
    "osm_id": 323914745,
    "osm_type": "way",
    "score": 0.7686604857444763,
    "pixel_coords": [
      399,
      435
    ]
  },
  {
    "name": "Wild Bills",
    "lat": 39.0145758,
    "lon": -79.4282118,
    "osm_id": 323914748,
    "osm_type": "way",
    "score": 0.7686604857444763,
    "pixel_coords": [
      399,
      435
    ]
  },
  {
    "name": "Trail_323914749",
    "lat": 39.0114825,
    "lon": -79.4096262,
    "osm_id": 323914749,
    "osm_type": "way",
    "score": 0.7686604857444763,
    "pixel_coords": [
      399,
      435
    ]
  },
  {
    "name": "Trail_324035783",
    "lat": 39.0108377,
    "lon": -79.410754,
    "osm_id": 324035783,
    "osm_type": "way",
    "score": 0.7686604857444763,
    "pixel_coords": [
      399,
      435
    ]
  },
  {
    "name": "Cathedral",
    "lat": 39.0129091,
    "lon": -79.4282989,
    "osm_id": 324042213,
    "osm_type": "way",
    "score": 0.7686604857444763,
    "pixel_coords": [
      399,
      435
    ]
  },
  {
    "name": "Sawmill",
    "lat": 39.0166873,
    "lon": -79.4291371,
    "osm_id": 324051665,
    "osm_type": "way",
    "score": 0.7686604857444763,
    "pixel_coords": [
      399,
      435
    ]
  },
  {
    "name": "Flatrock Bowl",
    "lat": 39.0118796,
    "lon": -79.4290081,
    "osm_id": 324057858,
    "osm_type": "way",
    "score": 0.7686604857444763,
    "pixel_coords": [
      399,
      435
    ]
  },
  {
    "name": "Highland View",
    "lat": 39.0156155,
    "lon": -79.4294864,
    "osm_id": 324057859,
    "osm_type": "way",
    "score": 0.7686604857444763,
    "pixel_coords": [
      399,
      435
    ]
  },
  {
    "name": "Three Springs Trail",
    "lat": 39.0152775,
    "lon": -79.4297661,
    "osm_id": 324057862,
    "osm_type": "way",
    "score": 0.7686604857444763,
    "pixel_coords": [
      399,
      435
    ]
  },
  {
    "name": "Trail_324057863",
    "lat": 39.0133012,
    "lon": -79.426844,
    "osm_id": 324057863,
    "osm_type": "way",
    "score": 0.7686604857444763,
    "pixel_coords": [
      399,
      435
    ]
  },
  {
    "name": "Trail_324059806",
    "lat": 39.0169573,
    "lon": -79.4281557,
    "osm_id": 324059806,
    "osm_type": "way",
    "score": 0.7686604857444763,
    "pixel_coords": [
      399,
      435
    ]
  },
  {
    "name": "Trail_828576750",
    "lat": 39.0082916,
    "lon": -79.4196617,
    "osm_id": 828576750,
    "osm_type": "way",
    "score": 0.7686604857444763,
    "pixel_coords": [
      399,
      435
    ]
  },
  {
    "name": "Trail_828576752",
    "lat": 39.0080483,
    "lon": -79.4260867,
    "osm_id": 828576752,
    "osm_type": "way",
    "score": 0.7686604857444763,
    "pixel_coords": [
      399,
      435
    ]
  },
  {
    "name": "Saw Whet Trail",
    "lat": 39.0080154,
    "lon": -79.427143,
    "osm_id": 828576753,
    "osm_type": "way",
    "score": 0.7686604857444763,
    "pixel_coords": [
      399,
      435
    ]
  },
  {
    "name": "Trail_828576754",
    "lat": 39.0081919,
    "lon": -79.424887,
    "osm_id": 828576754,
    "osm_type": "way",
    "score": 0.7686604857444763,
    "pixel_coords": [
      399,
      435
    ]
  },
  {
    "name": "Weiss Knob Slope",
    "lat": 39.0160572,
    "lon": -79.4229765,
    "osm_id": 900185216,
    "osm_type": "way",
    "score": 0.7686604857444763,
    "pixel_coords": [
      399,
      435
    ]
  },
  {
    "name": "Trail_900185217",
    "lat": 39.0124979,
    "lon": -79.4238059,
    "osm_id": 900185217,
    "osm_type": "way",
    "score": 0.7686604857444763,
    "pixel_coords": [
      399,
      435
    ]
  },
  {
    "name": "Trail_900201893",
    "lat": 39.0197935,
    "lon": -79.4259718,
    "osm_id": 900201893,
    "osm_type": "way",
    "score": 0.7686604857444763,
    "pixel_coords": [
      399,
      435
    ]
  },
  {
    "name": "Trail_905242486",
    "lat": 39.00923,
    "lon": -79.4294443,
    "osm_id": 905242486,
    "osm_type": "way",
    "score": 0.7686604857444763,
    "pixel_coords": [
      399,
      435
    ]
  },
  {
    "name": "Trail_1233418281",
    "lat": 43.040864,
    "lon": -85.4934837,
    "osm_id": 1233418281,
    "osm_type": "way",
    "score": 0.7666367888450623,
    "pixel_coords": [
      197,
      159
    ]
  },
  {
    "name": "Trail_1233418282",
    "lat": 43.0413454,
    "lon": -85.4947416,
    "osm_id": 1233418282,
    "osm_type": "way",
    "score": 0.7666367888450623,
    "pixel_coords": [
      197,
      159
    ]
  },
  {
    "name": "Trail_1351685256",
    "lat": 43.0426001,
    "lon": -85.4990964,
    "osm_id": 1351685256,
    "osm_type": "way",
    "score": 0.7666367888450623,
    "pixel_coords": [
      197,
      159
    ]
  },
  {
    "name": "Chairlift 8",
    "lat": 42.06007,
    "lon": -79.7372999,
    "osm_id": 139931074,
    "osm_type": "way",
    "score": 0.761693000793457,
    "pixel_coords": [
      246,
      421
    ]
  },
  {
    "name": "Trail_170994277",
    "lat": 41.7981607,
    "lon": -78.4760742,
    "osm_id": 170994277,
    "osm_type": "way",
    "score": 0.7613950967788696,
    "pixel_coords": [
      260,
      478
    ]
  },
  {
    "name": "Trail_1157487138",
    "lat": 41.7965024,
    "lon": -78.4742934,
    "osm_id": 1157487138,
    "osm_type": "way",
    "score": 0.7613950967788696,
    "pixel_coords": [
      260,
      478
    ]
  },
  {
    "name": "Trail_609759451",
    "lat": 44.2361715,
    "lon": -85.7355913,
    "osm_id": 609759451,
    "osm_type": "way",
    "score": 0.758795976638794,
    "pixel_coords": [
      138,
      148
    ]
  },
  {
    "name": "Trail_609759452",
    "lat": 44.2364209,
    "lon": -85.7358164,
    "osm_id": 609759452,
    "osm_type": "way",
    "score": 0.758795976638794,
    "pixel_coords": [
      138,
      148
    ]
  },
  {
    "name": "Trail_1037209805",
    "lat": 44.2396841,
    "lon": -85.7396324,
    "osm_id": 1037209805,
    "osm_type": "way",
    "score": 0.758795976638794,
    "pixel_coords": [
      138,
      148
    ]
  },
  {
    "name": "Trail_1037209807",
    "lat": 44.2336503,
    "lon": -85.7344249,
    "osm_id": 1037209807,
    "osm_type": "way",
    "score": 0.758795976638794,
    "pixel_coords": [
      138,
      148
    ]
  },
  {
    "name": "Trail_1351615699",
    "lat": 44.2378991,
    "lon": -85.7304403,
    "osm_id": 1351615699,
    "osm_type": "way",
    "score": 0.758795976638794,
    "pixel_coords": [
      138,
      148
    ]
  },
  {
    "name": "Trail_1351615700",
    "lat": 44.2379194,
    "lon": -85.7268464,
    "osm_id": 1351615700,
    "osm_type": "way",
    "score": 0.758795976638794,
    "pixel_coords": [
      138,
      148
    ]
  },
  {
    "name": "Trail_1351615701",
    "lat": 44.2324654,
    "lon": -85.7346534,
    "osm_id": 1351615701,
    "osm_type": "way",
    "score": 0.758795976638794,
    "pixel_coords": [
      138,
      148
    ]
  },
  {
    "name": "Jack Pine Valley",
    "lat": 44.7075995,
    "lon": -85.4483047,
    "osm_id": 120816092,
    "osm_type": "way",
    "score": 0.7568700313568115,
    "pixel_coords": [
      114,
      161
    ]
  },
  {
    "name": "Bluejay Trail",
    "lat": 42.5887458,
    "lon": -78.0012957,
    "osm_id": 12322112,
    "osm_type": "relation",
    "score": 0.7564194798469543,
    "pixel_coords": [
      220,
      499
    ]
  },
  {
    "name": "Vasa (25k)",
    "lat": 44.7405884,
    "lon": -85.4575337,
    "osm_id": 28321703,
    "osm_type": "way",
    "score": 0.7560468316078186,
    "pixel_coords": [
      112,
      161
    ]
  },
  {
    "name": "Egypt Valley - Section 2",
    "lat": 43.0329744,
    "lon": -85.4853907,
    "osm_id": 190683093,
    "osm_type": "way",
    "score": 0.7511652708053589,
    "pixel_coords": [
      198,
      159
    ]
  },
  {
    "name": "Egypt Valley - Section 1",
    "lat": 43.0353652,
    "lon": -85.4976468,
    "osm_id": 190683096,
    "osm_type": "way",
    "score": 0.7511652708053589,
    "pixel_coords": [
      198,
      159
    ]
  },
  {
    "name": "Egypt Valley - Section 4",
    "lat": 43.0230285,
    "lon": -85.5014105,
    "osm_id": 190683098,
    "osm_type": "way",
    "score": 0.7511652708053589,
    "pixel_coords": [
      198,
      159
    ]
  },
  {
    "name": "Trail_1233418271",
    "lat": 43.0253826,
    "lon": -85.4960391,
    "osm_id": 1233418271,
    "osm_type": "way",
    "score": 0.7511652708053589,
    "pixel_coords": [
      198,
      159
    ]
  },
  {
    "name": "Trail_1233418272",
    "lat": 43.0229675,
    "lon": -85.4889203,
    "osm_id": 1233418272,
    "osm_type": "way",
    "score": 0.7511652708053589,
    "pixel_coords": [
      198,
      159
    ]
  },
  {
    "name": "Dursum Avenue Northeast",
    "lat": 43.0388021,
    "lon": -85.4903441,
    "osm_id": 1351685258,
    "osm_type": "way",
    "score": 0.7511652708053589,
    "pixel_coords": [
      198,
      159
    ]
  },
  {
    "name": "Trail_323914746",
    "lat": 39.0136375,
    "lon": -79.43127,
    "osm_id": 323914746,
    "osm_type": "way",
    "score": 0.7503039836883545,
    "pixel_coords": [
      399,
      434
    ]
  },
  {
    "name": "Springer Forest",
    "lat": 39.0154232,
    "lon": -79.431307,
    "osm_id": 323914747,
    "osm_type": "way",
    "score": 0.7503039836883545,
    "pixel_coords": [
      399,
      434
    ]
  },
  {
    "name": "Trail_324057860",
    "lat": 39.0163003,
    "lon": -79.4318923,
    "osm_id": 324057860,
    "osm_type": "way",
    "score": 0.7503039836883545,
    "pixel_coords": [
      399,
      434
    ]
  },
  {
    "name": "Canaan Valley Ski Resort",
    "lat": 39.0061374,
    "lon": -79.4366093,
    "osm_id": 908172888,
    "osm_type": "way",
    "score": 0.7503039836883545,
    "pixel_coords": [
      399,
      434
    ]
  },
  {
    "name": "Trail_426627232",
    "lat": 42.2625679,
    "lon": -88.0973342,
    "osm_id": 426627232,
    "osm_type": "way",
    "score": 0.7492636442184448,
    "pixel_coords": [
      236,
      41
    ]
  },
  {
    "name": "Trail_1412592732",
    "lat": 42.2798191,
    "lon": -88.085548,
    "osm_id": 1412592732,
    "osm_type": "way",
    "score": 0.7492636442184448,
    "pixel_coords": [
      236,
      41
    ]
  },
  {
    "name": "Fort Hill Trail/Ray Lake Blue Loop",
    "lat": 42.2763111,
    "lon": -88.0888209,
    "osm_id": 16935891,
    "osm_type": "relation",
    "score": 0.7492636442184448,
    "pixel_coords": [
      236,
      41
    ]
  },
  {
    "name": "Leaf Lake Ski Trail",
    "lat": 45.5488301,
    "lon": -78.2884776,
    "osm_id": 1034532035,
    "osm_type": "way",
    "score": 0.7485126256942749,
    "pixel_coords": [
      72,
      486
    ]
  },
  {
    "name": "1.0 Mile Loop",
    "lat": 42.2385676,
    "lon": -88.4542187,
    "osm_id": 328034424,
    "osm_type": "way",
    "score": 0.747730553150177,
    "pixel_coords": [
      238,
      24
    ]
  },
  {
    "name": "Cannonsburg Ski Area",
    "lat": 43.0515682,
    "lon": -85.5032044,
    "osm_id": 524527169,
    "osm_type": "way",
    "score": 0.7460496425628662,
    "pixel_coords": [
      197,
      158
    ]
  },
  {
    "name": "Bittersweet",
    "lat": 42.4649347,
    "lon": -85.7610016,
    "osm_id": 1249475098,
    "osm_type": "way",
    "score": 0.7443647384643555,
    "pixel_coords": [
      226,
      147
    ]
  },
  {
    "name": "Upper Red Trail",
    "lat": 45.4711216,
    "lon": -84.8973591,
    "osm_id": 691891607,
    "osm_type": "way",
    "score": 0.7438226342201233,
    "pixel_coords": [
      76,
      186
    ]
  },
  {
    "name": "Upper Blue Trail",
    "lat": 45.461582,
    "lon": -84.8975757,
    "osm_id": 691891608,
    "osm_type": "way",
    "score": 0.7438226342201233,
    "pixel_coords": [
      76,
      186
    ]
  },
  {
    "name": "Nub's Nob",
    "lat": 45.4677521,
    "lon": -84.9041961,
    "osm_id": 997159129,
    "osm_type": "way",
    "score": 0.7438226342201233,
    "pixel_coords": [
      76,
      186
    ]
  },
  {
    "name": "Valley Road Connector",
    "lat": 45.4760193,
    "lon": -84.8941194,
    "osm_id": 1311861445,
    "osm_type": "way",
    "score": 0.7438226342201233,
    "pixel_coords": [
      76,
      186
    ]
  },
  {
    "name": "Yellow Loop",
    "lat": 42.9777299,
    "lon": -88.1899076,
    "osm_id": 881636299,
    "osm_type": "way",
    "score": 0.7425760626792908,
    "pixel_coords": [
      201,
      36
    ]
  },
  {
    "name": "Trail_1238762155",
    "lat": 42.9787795,
    "lon": -88.1926659,
    "osm_id": 1238762155,
    "osm_type": "way",
    "score": 0.7425760626792908,
    "pixel_coords": [
      201,
      36
    ]
  },
  {
    "name": "Trail_1238762156",
    "lat": 42.9778156,
    "lon": -88.1863039,
    "osm_id": 1238762156,
    "osm_type": "way",
    "score": 0.7425760626792908,
    "pixel_coords": [
      201,
      36
    ]
  },
  {
    "name": "Trail_1351225351",
    "lat": 42.9792786,
    "lon": -88.187357,
    "osm_id": 1351225351,
    "osm_type": "way",
    "score": 0.7425760626792908,
    "pixel_coords": [
      201,
      36
    ]
  },
  {
    "name": "Pink Loop",
    "lat": 42.9796783,
    "lon": -88.1899076,
    "osm_id": 17012138,
    "osm_type": "relation",
    "score": 0.7425760626792908,
    "pixel_coords": [
      201,
      36
    ]
  },
  {
    "name": "Lower Red Trail",
    "lat": 45.471514,
    "lon": -84.9114209,
    "osm_id": 691891565,
    "osm_type": "way",
    "score": 0.7418392896652222,
    "pixel_coords": [
      76,
      185
    ]
  },
  {
    "name": "Morefoot",
    "lat": 45.4752769,
    "lon": -84.9300134,
    "osm_id": 691891618,
    "osm_type": "way",
    "score": 0.7418392896652222,
    "pixel_coords": [
      76,
      185
    ]
  },
  {
    "name": "Headwaters",
    "lat": 44.742513,
    "lon": -85.4878927,
    "osm_id": 17808168,
    "osm_type": "way",
    "score": 0.7387819290161133,
    "pixel_coords": [
      112,
      159
    ]
  },
  {
    "name": "Vasa (5k/10k/25k)",
    "lat": 44.7428173,
    "lon": -85.4841555,
    "osm_id": 120809786,
    "osm_type": "way",
    "score": 0.7387819290161133,
    "pixel_coords": [
      112,
      159
    ]
  },
  {
    "name": "Meadows Loop",
    "lat": 44.7550409,
    "lon": -85.491833,
    "osm_id": 396011866,
    "osm_type": "way",
    "score": 0.7387819290161133,
    "pixel_coords": [
      112,
      159
    ]
  },
  {
    "name": "5K Headwaters Loop",
    "lat": 44.744945,
    "lon": -85.4876106,
    "osm_id": 18548225,
    "osm_type": "relation",
    "score": 0.7387819290161133,
    "pixel_coords": [
      112,
      159
    ]
  },
  {
    "name": "3K Meadows Loop",
    "lat": 44.7550409,
    "lon": -85.491833,
    "osm_id": 18548226,
    "osm_type": "relation",
    "score": 0.7387819290161133,
    "pixel_coords": [
      112,
      159
    ]
  },
  {
    "name": "Hedrick Road",
    "lat": 45.4851607,
    "lon": -84.9467332,
    "osm_id": 261419562,
    "osm_type": "way",
    "score": 0.7381957769393921,
    "pixel_coords": [
      75,
      184
    ]
  },
  {
    "name": "Lowlands",
    "lat": 45.4850845,
    "lon": -84.9387994,
    "osm_id": 691891571,
    "osm_type": "way",
    "score": 0.7381957769393921,
    "pixel_coords": [
      75,
      184
    ]
  },
  {
    "name": "Uplands",
    "lat": 45.4843406,
    "lon": -84.9367904,
    "osm_id": 691891573,
    "osm_type": "way",
    "score": 0.7381957769393921,
    "pixel_coords": [
      75,
      184
    ]
  },
  {
    "name": "Wee Ben",
    "lat": 45.4848063,
    "lon": -84.9502963,
    "osm_id": 691891579,
    "osm_type": "way",
    "score": 0.7381957769393921,
    "pixel_coords": [
      75,
      184
    ]
  },
  {
    "name": "Blue Bottle Trail",
    "lat": 45.4844677,
    "lon": -84.9450679,
    "osm_id": 1072061512,
    "osm_type": "way",
    "score": 0.7381957769393921,
    "pixel_coords": [
      75,
      184
    ]
  },
  {
    "name": "Tree Tops Trail",
    "lat": 45.4822483,
    "lon": -84.9467802,
    "osm_id": 1072061519,
    "osm_type": "way",
    "score": 0.7381957769393921,
    "pixel_coords": [
      75,
      184
    ]
  },
  {
    "name": "Cuillin",
    "lat": 45.4852596,
    "lon": -84.9468462,
    "osm_id": 1351017869,
    "osm_type": "way",
    "score": 0.7381957769393921,
    "pixel_coords": [
      75,
      184
    ]
  },
  {
    "name": "Cadillac Pathway (#8-#9)",
    "lat": 44.2708534,
    "lon": -85.3565852,
    "osm_id": 567602316,
    "osm_type": "way",
    "score": 0.7370195984840393,
    "pixel_coords": [
      136,
      165
    ]
  },
  {
    "name": "Cadillac Pathway (#12-#8)",
    "lat": 44.2721542,
    "lon": -85.3571868,
    "osm_id": 1023374860,
    "osm_type": "way",
    "score": 0.7370195984840393,
    "pixel_coords": [
      136,
      165
    ]
  },
  {
    "name": "The Mountain Top at Grand Geneva Resort & Spa",
    "lat": 42.6113532,
    "lon": -88.388135,
    "osm_id": 601919996,
    "osm_type": "way",
    "score": 0.7355034947395325,
    "pixel_coords": [
      219,
      27
    ]
  },
  {
    "name": "Cross-Country Ski Trail",
    "lat": 45.5047415,
    "lon": -84.2426786,
    "osm_id": 861102698,
    "osm_type": "way",
    "score": 0.7352479100227356,
    "pixel_coords": [
      74,
      216
    ]
  },
  {
    "name": "Black Mountain Forest Recreation Area Pathway System",
    "lat": 45.5076153,
    "lon": -84.2377098,
    "osm_id": 11775783,
    "osm_type": "relation",
    "score": 0.7352479100227356,
    "pixel_coords": [
      74,
      216
    ]
  },
  {
    "name": "Blackbirds Wing",
    "lat": 39.0213844,
    "lon": -79.4053335,
    "osm_id": 323914709,
    "osm_type": "way",
    "score": 0.7351902723312378,
    "pixel_coords": [
      398,
      436
    ]
  },
  {
    "name": "Timberline Mountain",
    "lat": 39.0367806,
    "lon": -79.3975943,
    "osm_id": 1010719780,
    "osm_type": "way",
    "score": 0.7351902723312378,
    "pixel_coords": [
      398,
      436
    ]
  },
  {
    "name": "Manitou",
    "lat": 44.4752935,
    "lon": -84.64923,
    "osm_id": 509491769,
    "osm_type": "way",
    "score": 0.7345965504646301,
    "pixel_coords": [
      126,
      197
    ]
  },
  {
    "name": "Blizzard",
    "lat": 44.4709983,
    "lon": -84.6646796,
    "osm_id": 568709701,
    "osm_type": "way",
    "score": 0.7345965504646301,
    "pixel_coords": [
      126,
      197
    ]
  },
  {
    "name": "Rolling Hills",
    "lat": 44.474741,
    "lon": -84.6612519,
    "osm_id": 568709707,
    "osm_type": "way",
    "score": 0.7345965504646301,
    "pixel_coords": [
      126,
      197
    ]
  },
  {
    "name": "Tall Pines",
    "lat": 44.4682625,
    "lon": -84.6612493,
    "osm_id": 568709718,
    "osm_type": "way",
    "score": 0.7345965504646301,
    "pixel_coords": [
      126,
      197
    ]
  },
  {
    "name": "Wild Turkey",
    "lat": 44.4675205,
    "lon": -84.6590777,
    "osm_id": 568710294,
    "osm_type": "way",
    "score": 0.7345965504646301,
    "pixel_coords": [
      126,
      197
    ]
  },
  {
    "name": "Mackinac Cut",
    "lat": 44.4707354,
    "lon": -84.6597518,
    "osm_id": 568711705,
    "osm_type": "way",
    "score": 0.7345965504646301,
    "pixel_coords": [
      126,
      197
    ]
  },
  {
    "name": "Trapper's Cabin",
    "lat": 44.47223,
    "lon": -84.657061,
    "osm_id": 568711706,
    "osm_type": "way",
    "score": 0.7345965504646301,
    "pixel_coords": [
      126,
      197
    ]
  },
  {
    "name": "Adventure",
    "lat": 44.4735128,
    "lon": -84.657573,
    "osm_id": 568711707,
    "osm_type": "way",
    "score": 0.7345965504646301,
    "pixel_coords": [
      126,
      197
    ]
  },
  {
    "name": "Main Track",
    "lat": 44.4717293,
    "lon": -84.6614831,
    "osm_id": 568711709,
    "osm_type": "way",
    "score": 0.7345965504646301,
    "pixel_coords": [
      126,
      197
    ]
  },
  {
    "name": "Cross Country Ski Headquarters Trails",
    "lat": 44.4718252,
    "lon": -84.6563934,
    "osm_id": 937917198,
    "osm_type": "way",
    "score": 0.7345965504646301,
    "pixel_coords": [
      126,
      197
    ]
  },
  {
    "name": "Mackinac Cut & Wild Turkey",
    "lat": 44.4687109,
    "lon": -84.6590777,
    "osm_id": 18550938,
    "osm_type": "relation",
    "score": 0.7345965504646301,
    "pixel_coords": [
      126,
      197
    ]
  },
  {
    "name": "Vasa (10k)",
    "lat": 44.7320991,
    "lon": -85.4716821,
    "osm_id": 17805531,
    "osm_type": "way",
    "score": 0.7341374158859253,
    "pixel_coords": [
      113,
      160
    ]
  },
  {
    "name": "Vasa (10k/25k)",
    "lat": 44.7400434,
    "lon": -85.4797538,
    "osm_id": 92716304,
    "osm_type": "way",
    "score": 0.7341374158859253,
    "pixel_coords": [
      113,
      160
    ]
  },
  {
    "name": "Trail_120809779",
    "lat": 44.737285,
    "lon": -85.4794898,
    "osm_id": 120809779,
    "osm_type": "way",
    "score": 0.7341374158859253,
    "pixel_coords": [
      113,
      160
    ]
  },
  {
    "name": "Special \"K\" Connector",
    "lat": 44.7229729,
    "lon": -85.4731503,
    "osm_id": 886073972,
    "osm_type": "way",
    "score": 0.7341374158859253,
    "pixel_coords": [
      113,
      160
    ]
  },
  {
    "name": "Vasa Pathway",
    "lat": 44.7277211,
    "lon": -85.4605529,
    "osm_id": 1655883,
    "osm_type": "relation",
    "score": 0.7341374158859253,
    "pixel_coords": [
      113,
      160
    ]
  },
  {
    "name": "Vasa 25K Loop",
    "lat": 44.7277211,
    "lon": -85.4605529,
    "osm_id": 18548223,
    "osm_type": "relation",
    "score": 0.7341374158859253,
    "pixel_coords": [
      113,
      160
    ]
  },
  {
    "name": "Vasa 10K Loop",
    "lat": 44.7379601,
    "lon": -85.4764742,
    "osm_id": 18548224,
    "osm_type": "relation",
    "score": 0.7341374158859253,
    "pixel_coords": [
      113,
      160
    ]
  },
  {
    "name": "Trail_21818643",
    "lat": 42.2874164,
    "lon": -88.0828261,
    "osm_id": 21818643,
    "osm_type": "way",
    "score": 0.7330222129821777,
    "pixel_coords": [
      235,
      41
    ]
  },
  {
    "name": "Fort Hill Trail",
    "lat": 42.2875823,
    "lon": -88.0892319,
    "osm_id": 277906197,
    "osm_type": "way",
    "score": 0.7330222129821777,
    "pixel_coords": [
      235,
      41
    ]
  },
  {
    "name": "Trail_277906206",
    "lat": 42.2837586,
    "lon": -88.0853111,
    "osm_id": 277906206,
    "osm_type": "way",
    "score": 0.7330222129821777,
    "pixel_coords": [
      235,
      41
    ]
  },
  {
    "name": "Trail_1184521881",
    "lat": 42.2801447,
    "lon": -88.0891189,
    "osm_id": 1184521881,
    "osm_type": "way",
    "score": 0.7330222129821777,
    "pixel_coords": [
      235,
      41
    ]
  },
  {
    "name": "Trail_1184565470",
    "lat": 42.2905284,
    "lon": -88.08704,
    "osm_id": 1184565470,
    "osm_type": "way",
    "score": 0.7330222129821777,
    "pixel_coords": [
      235,
      41
    ]
  },
  {
    "name": "Trail_1340299518",
    "lat": 42.2828914,
    "lon": -88.0822609,
    "osm_id": 1340299518,
    "osm_type": "way",
    "score": 0.7330222129821777,
    "pixel_coords": [
      235,
      41
    ]
  },
  {
    "name": "Trail_1340299519",
    "lat": 42.2844746,
    "lon": -88.07889,
    "osm_id": 1340299519,
    "osm_type": "way",
    "score": 0.7330222129821777,
    "pixel_coords": [
      235,
      41
    ]
  },
  {
    "name": "North Woods Trail Connector",
    "lat": 40.069401,
    "lon": -79.2516242,
    "osm_id": 865474351,
    "osm_type": "way",
    "score": 0.7322849035263062,
    "pixel_coords": [
      346,
      443
    ]
  },
  {
    "name": "Trail_865474356",
    "lat": 40.0782164,
    "lon": -79.2531364,
    "osm_id": 865474356,
    "osm_type": "way",
    "score": 0.7322849035263062,
    "pixel_coords": [
      346,
      443
    ]
  },
  {
    "name": "Animoosh",
    "lat": 46.5912692,
    "lon": -87.5056266,
    "osm_id": 771484057,
    "osm_type": "way",
    "score": 0.7317667007446289,
    "pixel_coords": [
      20,
      67
    ]
  },
  {
    "name": "Mukwa",
    "lat": 46.5968191,
    "lon": -87.5104996,
    "osm_id": 771484071,
    "osm_type": "way",
    "score": 0.7317667007446289,
    "pixel_coords": [
      20,
      67
    ]
  },
  {
    "name": "2nd Cutoff",
    "lat": 46.5998245,
    "lon": -87.5050078,
    "osm_id": 771484079,
    "osm_type": "way",
    "score": 0.7317667007446289,
    "pixel_coords": [
      20,
      67
    ]
  },
  {
    "name": "Animoosh to Noque 13.5K",
    "lat": 46.5989034,
    "lon": -87.5153639,
    "osm_id": 889264487,
    "osm_type": "way",
    "score": 0.7317667007446289,
    "pixel_coords": [
      20,
      67
    ]
  },
  {
    "name": "Chiwaji",
    "lat": 46.6009413,
    "lon": -87.5118206,
    "osm_id": 771484068,
    "osm_type": "way",
    "score": 0.7305395603179932,
    "pixel_coords": [
      19,
      67
    ]
  },
  {
    "name": "Animoosh to Noque Harkin Junction",
    "lat": 46.6015774,
    "lon": -87.5147647,
    "osm_id": 1116615099,
    "osm_type": "way",
    "score": 0.7305395603179932,
    "pixel_coords": [
      19,
      67
    ]
  },
  {
    "name": "Trail_1184232480",
    "lat": 42.1304644,
    "lon": -87.8855669,
    "osm_id": 1184232480,
    "osm_type": "way",
    "score": 0.7301774024963379,
    "pixel_coords": [
      243,
      50
    ]
  },
  {
    "name": "Vasa (25k) The Wall Bypass",
    "lat": 44.732653,
    "lon": -85.4463105,
    "osm_id": 455703591,
    "osm_type": "way",
    "score": 0.7277146577835083,
    "pixel_coords": [
      113,
      161
    ]
  },
  {
    "name": "The Wall Bypass",
    "lat": 44.7317743,
    "lon": -85.4414832,
    "osm_id": 1027069760,
    "osm_type": "way",
    "score": 0.7277146577835083,
    "pixel_coords": [
      113,
      161
    ]
  },
  {
    "name": "Clutch",
    "lat": 44.7320026,
    "lon": -85.4419527,
    "osm_id": 1351036545,
    "osm_type": "way",
    "score": 0.7277146577835083,
    "pixel_coords": [
      113,
      161
    ]
  },
  {
    "name": "Trail_1094524863",
    "lat": 42.5091175,
    "lon": -82.9687813,
    "osm_id": 1094524863,
    "osm_type": "way",
    "score": 0.7258374691009521,
    "pixel_coords": [
      224,
      274
    ]
  },
  {
    "name": "Two-way Trail",
    "lat": 44.7807864,
    "lon": -84.7077352,
    "osm_id": 969844165,
    "osm_type": "way",
    "score": 0.7238428592681885,
    "pixel_coords": [
      110,
      195
    ]
  },
  {
    "name": "Snowmaking Loop",
    "lat": 44.783616,
    "lon": -84.701799,
    "osm_id": 969844168,
    "osm_type": "way",
    "score": 0.7238428592681885,
    "pixel_coords": [
      110,
      195
    ]
  },
  {
    "name": "Badlands",
    "lat": 44.7808393,
    "lon": -84.7002575,
    "osm_id": 969844169,
    "osm_type": "way",
    "score": 0.7238428592681885,
    "pixel_coords": [
      110,
      195
    ]
  },
  {
    "name": "Rollercoaster",
    "lat": 44.7805544,
    "lon": -84.7038724,
    "osm_id": 969844186,
    "osm_type": "way",
    "score": 0.7238428592681885,
    "pixel_coords": [
      110,
      195
    ]
  },
  {
    "name": "Ridge",
    "lat": 44.7827676,
    "lon": -84.703633,
    "osm_id": 969844187,
    "osm_type": "way",
    "score": 0.7238428592681885,
    "pixel_coords": [
      110,
      195
    ]
  },
  {
    "name": "Pancake",
    "lat": 44.7819727,
    "lon": -84.7056728,
    "osm_id": 969844188,
    "osm_type": "way",
    "score": 0.7238428592681885,
    "pixel_coords": [
      110,
      195
    ]
  },
  {
    "name": "Valley",
    "lat": 44.7831353,
    "lon": -84.7025333,
    "osm_id": 969844189,
    "osm_type": "way",
    "score": 0.7238428592681885,
    "pixel_coords": [
      110,
      195
    ]
  },
  {
    "name": "Trail_970347412",
    "lat": 44.7803076,
    "lon": -84.7061147,
    "osm_id": 970347412,
    "osm_type": "way",
    "score": 0.7238428592681885,
    "pixel_coords": [
      110,
      195
    ]
  },
  {
    "name": "Trail_970347489",
    "lat": 44.7851009,
    "lon": -84.7056735,
    "osm_id": 970347489,
    "osm_type": "way",
    "score": 0.7238428592681885,
    "pixel_coords": [
      110,
      195
    ]
  },
  {
    "name": "Lil Coaster",
    "lat": 44.7837693,
    "lon": -84.7026929,
    "osm_id": 970347490,
    "osm_type": "way",
    "score": 0.7238428592681885,
    "pixel_coords": [
      110,
      195
    ]
  },
  {
    "name": "Homerun Hill",
    "lat": 44.7852037,
    "lon": -84.7029966,
    "osm_id": 1351229558,
    "osm_type": "way",
    "score": 0.7238428592681885,
    "pixel_coords": [
      110,
      195
    ]
  },
  {
    "name": "Exclaimation Way",
    "lat": 42.0609635,
    "lon": -79.7652015,
    "osm_id": 1011580653,
    "osm_type": "way",
    "score": 0.7234423756599426,
    "pixel_coords": [
      246,
      419
    ]
  },
  {
    "name": "Exclaimation Point",
    "lat": 42.061957,
    "lon": -79.7700028,
    "osm_id": 1011580654,
    "osm_type": "way",
    "score": 0.7234423756599426,
    "pixel_coords": [
      246,
      419
    ]
  },
  {
    "name": "High Road",
    "lat": 42.0617022,
    "lon": -79.7653464,
    "osm_id": 1011580655,
    "osm_type": "way",
    "score": 0.7234423756599426,
    "pixel_coords": [
      246,
      419
    ]
  },
  {
    "name": "The Path Less Taken",
    "lat": 42.0644325,
    "lon": -79.7703951,
    "osm_id": 1011580656,
    "osm_type": "way",
    "score": 0.7234423756599426,
    "pixel_coords": [
      246,
      419
    ]
  },
  {
    "name": "Cliffside",
    "lat": 42.0625809,
    "lon": -79.7710308,
    "osm_id": 1011580657,
    "osm_type": "way",
    "score": 0.7234423756599426,
    "pixel_coords": [
      246,
      419
    ]
  },
  {
    "name": "Middle Road",
    "lat": 42.0633134,
    "lon": -79.7665181,
    "osm_id": 1011916399,
    "osm_type": "way",
    "score": 0.7234423756599426,
    "pixel_coords": [
      246,
      419
    ]
  },
  {
    "name": "Ruth's Rue",
    "lat": 42.0639011,
    "lon": -79.768114,
    "osm_id": 1011918923,
    "osm_type": "way",
    "score": 0.7234423756599426,
    "pixel_coords": [
      246,
      419
    ]
  },
  {
    "name": "Peak Trial",
    "lat": 42.0613221,
    "lon": -79.7616341,
    "osm_id": 13548422,
    "osm_type": "relation",
    "score": 0.7234423756599426,
    "pixel_coords": [
      246,
      419
    ]
  },
  {
    "name": "Green/Orange Trail",
    "lat": 46.5182877,
    "lon": -87.5454645,
    "osm_id": 1125082179,
    "osm_type": "way",
    "score": 0.7226673364639282,
    "pixel_coords": [
      24,
      66
    ]
  },
  {
    "name": "Kissing Bridge",
    "lat": 42.5997665,
    "lon": -78.6586755,
    "osm_id": 1026091819,
    "osm_type": "way",
    "score": 0.7210879921913147,
    "pixel_coords": [
      220,
      470
    ]
  },
  {
    "name": "Sunburst Ski Area",
    "lat": 43.4953964,
    "lon": -88.2240886,
    "osm_id": 734696805,
    "osm_type": "way",
    "score": 0.7201147079467773,
    "pixel_coords": [
      175,
      35
    ]
  },
  {
    "name": "Trail_567606348",
    "lat": 44.2760148,
    "lon": -85.3269967,
    "osm_id": 567606348,
    "osm_type": "way",
    "score": 0.7199631333351135,
    "pixel_coords": [
      136,
      166
    ]
  },
  {
    "name": "Cadillac Pathway (#4-#8)",
    "lat": 44.2703398,
    "lon": -85.3407128,
    "osm_id": 567606349,
    "osm_type": "way",
    "score": 0.7199631333351135,
    "pixel_coords": [
      136,
      166
    ]
  },
  {
    "name": "Cadillac Pathway (#8-#5)",
    "lat": 44.2686874,
    "lon": -85.338696,
    "osm_id": 1023374874,
    "osm_type": "way",
    "score": 0.7199631333351135,
    "pixel_coords": [
      136,
      166
    ]
  },
  {
    "name": "Cadillac Pathway (#3-#6)",
    "lat": 44.2761899,
    "lon": -85.3309581,
    "osm_id": 1353156325,
    "osm_type": "way",
    "score": 0.7199631333351135,
    "pixel_coords": [
      136,
      166
    ]
  },
  {
    "name": "Cadillac Pathway (#2-#3)",
    "lat": 44.2789353,
    "lon": -85.3348979,
    "osm_id": 1353156327,
    "osm_type": "way",
    "score": 0.7199631333351135,
    "pixel_coords": [
      136,
      166
    ]
  },
  {
    "name": "Cadillac Pathway (#3-#4)",
    "lat": 44.2754699,
    "lon": -85.3346739,
    "osm_id": 1353156328,
    "osm_type": "way",
    "score": 0.7199631333351135,
    "pixel_coords": [
      136,
      166
    ]
  },
  {
    "name": "Cadillac Pathway (#6-#7)",
    "lat": 44.2791604,
    "lon": -85.3268418,
    "osm_id": 1353156329,
    "osm_type": "way",
    "score": 0.7199631333351135,
    "pixel_coords": [
      136,
      166
    ]
  },
  {
    "name": "Cadillac Pathway (#4-#5)",
    "lat": 44.273443,
    "lon": -85.3330456,
    "osm_id": 1353160099,
    "osm_type": "way",
    "score": 0.7199631333351135,
    "pixel_coords": [
      136,
      166
    ]
  },
  {
    "name": "Inman Creek Spur B",
    "lat": 46.0053308,
    "lon": -86.98719,
    "osm_id": 331675026,
    "osm_type": "way",
    "score": 0.7199261784553528,
    "pixel_coords": [
      49,
      91
    ]
  },
  {
    "name": "S1 Loop",
    "lat": 46.0013732,
    "lon": -86.99369,
    "osm_id": 1124559658,
    "osm_type": "way",
    "score": 0.7199261784553528,
    "pixel_coords": [
      49,
      91
    ]
  },
  {
    "name": "A Loop",
    "lat": 46.0131078,
    "lon": -86.9810463,
    "osm_id": 1124559659,
    "osm_type": "way",
    "score": 0.7199261784553528,
    "pixel_coords": [
      49,
      91
    ]
  },
  {
    "name": "Trail_1136583872",
    "lat": 46.0139468,
    "lon": -86.9762415,
    "osm_id": 1136583872,
    "osm_type": "way",
    "score": 0.7199261784553528,
    "pixel_coords": [
      49,
      91
    ]
  },
  {
    "name": "Inman Creek Spur A",
    "lat": 46.0165813,
    "lon": -86.9771786,
    "osm_id": 1136583876,
    "osm_type": "way",
    "score": 0.7199261784553528,
    "pixel_coords": [
      49,
      91
    ]
  },
  {
    "name": "Trail_15437610",
    "lat": 46.0077342,
    "lon": -86.9818251,
    "osm_id": 15437610,
    "osm_type": "relation",
    "score": 0.7199261784553528,
    "pixel_coords": [
      49,
      91
    ]
  },
  {
    "name": "Tot Loop",
    "lat": 46.0178702,
    "lon": -86.9769579,
    "osm_id": 15437611,
    "osm_type": "relation",
    "score": 0.7199261784553528,
    "pixel_coords": [
      49,
      91
    ]
  },
  {
    "name": "Trail_15437612",
    "lat": 46.0143968,
    "lon": -86.9784493,
    "osm_id": 15437612,
    "osm_type": "relation",
    "score": 0.7199261784553528,
    "pixel_coords": [
      49,
      91
    ]
  },
  {
    "name": "Trail_15443160",
    "lat": 46.0084945,
    "lon": -86.9818251,
    "osm_id": 15443160,
    "osm_type": "relation",
    "score": 0.7199261784553528,
    "pixel_coords": [
      49,
      91
    ]
  },
  {
    "name": "Trail_15443161",
    "lat": 46.0062861,
    "lon": -86.986014,
    "osm_id": 15443161,
    "osm_type": "relation",
    "score": 0.7199261784553528,
    "pixel_coords": [
      49,
      91
    ]
  },
  {
    "name": "Trail_866122878",
    "lat": 39.9519268,
    "lon": -79.3658996,
    "osm_id": 866122878,
    "osm_type": "way",
    "score": 0.7188798189163208,
    "pixel_coords": [
      352,
      437
    ]
  },
  {
    "name": "Green XC Trail",
    "lat": 39.9530967,
    "lon": -79.3659533,
    "osm_id": 866122879,
    "osm_type": "way",
    "score": 0.7188798189163208,
    "pixel_coords": [
      352,
      437
    ]
  },
  {
    "name": "Trail_866122880",
    "lat": 39.9540219,
    "lon": -79.365803,
    "osm_id": 866122880,
    "osm_type": "way",
    "score": 0.7188798189163208,
    "pixel_coords": [
      352,
      437
    ]
  },
  {
    "name": "Trail_866122881",
    "lat": 39.9542166,
    "lon": -79.365695,
    "osm_id": 866122881,
    "osm_type": "way",
    "score": 0.7188798189163208,
    "pixel_coords": [
      352,
      437
    ]
  },
  {
    "name": "Orange XC Trail - Hill Bypass",
    "lat": 39.9544948,
    "lon": -79.3666023,
    "osm_id": 866122882,
    "osm_type": "way",
    "score": 0.7188798189163208,
    "pixel_coords": [
      352,
      437
    ]
  },
  {
    "name": "Green XC Trail \"C\"",
    "lat": 39.9414245,
    "lon": -79.3733448,
    "osm_id": 866122886,
    "osm_type": "way",
    "score": 0.7188798189163208,
    "pixel_coords": [
      352,
      437
    ]
  },
  {
    "name": "Yellow XC Trail",
    "lat": 39.9460145,
    "lon": -79.3655107,
    "osm_id": 866122888,
    "osm_type": "way",
    "score": 0.7188798189163208,
    "pixel_coords": [
      352,
      437
    ]
  },
  {
    "name": "Trail_866122890",
    "lat": 39.9482853,
    "lon": -79.3688902,
    "osm_id": 866122890,
    "osm_type": "way",
    "score": 0.7188798189163208,
    "pixel_coords": [
      352,
      437
    ]
  },
  {
    "name": "Green XC Trail \"A\"",
    "lat": 39.9486553,
    "lon": -79.3704057,
    "osm_id": 866122891,
    "osm_type": "way",
    "score": 0.7188798189163208,
    "pixel_coords": [
      352,
      437
    ]
  },
  {
    "name": "Green XC Trail \"B\"",
    "lat": 39.9490872,
    "lon": -79.3705961,
    "osm_id": 866122892,
    "osm_type": "way",
    "score": 0.7188798189163208,
    "pixel_coords": [
      352,
      437
    ]
  },
  {
    "name": "Blue XC Trail",
    "lat": 39.9508102,
    "lon": -79.3709689,
    "osm_id": 866122895,
    "osm_type": "way",
    "score": 0.7188798189163208,
    "pixel_coords": [
      352,
      437
    ]
  },
  {
    "name": "Purple XC Trail",
    "lat": 39.9525745,
    "lon": -79.3707249,
    "osm_id": 866122897,
    "osm_type": "way",
    "score": 0.7188798189163208,
    "pixel_coords": [
      352,
      437
    ]
  },
  {
    "name": "Red XC Trail",
    "lat": 39.9408699,
    "lon": -79.374268,
    "osm_id": 866122898,
    "osm_type": "way",
    "score": 0.7188798189163208,
    "pixel_coords": [
      352,
      437
    ]
  },
  {
    "name": "Red, Blue, & Purple XC Trail",
    "lat": 39.953584,
    "lon": -79.3703815,
    "osm_id": 866123634,
    "osm_type": "way",
    "score": 0.7188798189163208,
    "pixel_coords": [
      352,
      437
    ]
  },
  {
    "name": "Blue & Purple XC Trail",
    "lat": 39.9526436,
    "lon": -79.3685416,
    "osm_id": 866123635,
    "osm_type": "way",
    "score": 0.7188798189163208,
    "pixel_coords": [
      352,
      437
    ]
  },
  {
    "name": "Red & Blue XC Trail",
    "lat": 39.9516574,
    "lon": -79.3726802,
    "osm_id": 866123636,
    "osm_type": "way",
    "score": 0.7188798189163208,
    "pixel_coords": [
      352,
      437
    ]
  },
  {
    "name": "Trail_866133819",
    "lat": 39.9526259,
    "lon": -79.3664337,
    "osm_id": 866133819,
    "osm_type": "way",
    "score": 0.7188798189163208,
    "pixel_coords": [
      352,
      437
    ]
  },
  {
    "name": "Buffalo Ski Club",
    "lat": 42.6775278,
    "lon": -78.6960357,
    "osm_id": 1026073030,
    "osm_type": "way",
    "score": 0.717600405216217,
    "pixel_coords": [
      216,
      468
    ]
  },
  {
    "name": "Caberfae Peaks",
    "lat": 44.2421557,
    "lon": -85.7175785,
    "osm_id": 1241940633,
    "osm_type": "way",
    "score": 0.7159333825111389,
    "pixel_coords": [
      137,
      149
    ]
  },
  {
    "name": "Trail_609759449",
    "lat": 44.2415695,
    "lon": -85.7321022,
    "osm_id": 609759449,
    "osm_type": "way",
    "score": 0.7144076228141785,
    "pixel_coords": [
      137,
      148
    ]
  },
  {
    "name": "Trail_609759450",
    "lat": 44.2409061,
    "lon": -85.7401128,
    "osm_id": 609759450,
    "osm_type": "way",
    "score": 0.7144076228141785,
    "pixel_coords": [
      137,
      148
    ]
  },
  {
    "name": "Trail_1037209803",
    "lat": 44.2473259,
    "lon": -85.7366282,
    "osm_id": 1037209803,
    "osm_type": "way",
    "score": 0.7144076228141785,
    "pixel_coords": [
      137,
      148
    ]
  },
  {
    "name": "Trail_1037209804",
    "lat": 44.2477476,
    "lon": -85.7359302,
    "osm_id": 1037209804,
    "osm_type": "way",
    "score": 0.7144076228141785,
    "pixel_coords": [
      137,
      148
    ]
  },
  {
    "name": "Trail_1037209806",
    "lat": 44.2426316,
    "lon": -85.7319147,
    "osm_id": 1037209806,
    "osm_type": "way",
    "score": 0.7144076228141785,
    "pixel_coords": [
      137,
      148
    ]
  },
  {
    "name": "Trail_1037209808",
    "lat": 44.2437202,
    "lon": -85.7278984,
    "osm_id": 1037209808,
    "osm_type": "way",
    "score": 0.7144076228141785,
    "pixel_coords": [
      137,
      148
    ]
  },
  {
    "name": "Trail_1037209809",
    "lat": 44.2441587,
    "lon": -85.7252206,
    "osm_id": 1037209809,
    "osm_type": "way",
    "score": 0.7144076228141785,
    "pixel_coords": [
      137,
      148
    ]
  },
  {
    "name": "Trail_1351615695",
    "lat": 44.2433237,
    "lon": -85.7411868,
    "osm_id": 1351615695,
    "osm_type": "way",
    "score": 0.7144076228141785,
    "pixel_coords": [
      137,
      148
    ]
  },
  {
    "name": "Trail_1351615697",
    "lat": 44.2443993,
    "lon": -85.7363117,
    "osm_id": 1351615697,
    "osm_type": "way",
    "score": 0.7144076228141785,
    "pixel_coords": [
      137,
      148
    ]
  },
  {
    "name": "Trail_1351615698",
    "lat": 44.2416208,
    "lon": -85.7324033,
    "osm_id": 1351615698,
    "osm_type": "way",
    "score": 0.7144076228141785,
    "pixel_coords": [
      137,
      148
    ]
  },
  {
    "name": "B Loop",
    "lat": 46.0046938,
    "lon": -86.9751652,
    "osm_id": 17775817,
    "osm_type": "way",
    "score": 0.7133604288101196,
    "pixel_coords": [
      49,
      92
    ]
  },
  {
    "name": "Trail_1136583871",
    "lat": 46.014798,
    "lon": -86.9753503,
    "osm_id": 1136583871,
    "osm_type": "way",
    "score": 0.7133604288101196,
    "pixel_coords": [
      49,
      92
    ]
  },
  {
    "name": "Slow Poke",
    "lat": 46.0128923,
    "lon": -86.9758781,
    "osm_id": 1138160363,
    "osm_type": "way",
    "score": 0.7133604288101196,
    "pixel_coords": [
      49,
      92
    ]
  },
  {
    "name": "Stemwinder Trail",
    "lat": 39.1022166,
    "lon": -79.4912779,
    "osm_id": 16925471,
    "osm_type": "relation",
    "score": 0.7132405042648315,
    "pixel_coords": [
      394,
      432
    ]
  },
  {
    "name": "Yellow Birch Trail",
    "lat": 39.1066626,
    "lon": -79.4901598,
    "osm_id": 16925485,
    "osm_type": "relation",
    "score": 0.7132405042648315,
    "pixel_coords": [
      394,
      432
    ]
  },
  {
    "name": "Orange XC Trail",
    "lat": 39.9773828,
    "lon": -79.3533462,
    "osm_id": 865803473,
    "osm_type": "way",
    "score": 0.7128065824508667,
    "pixel_coords": [
      351,
      438
    ]
  },
  {
    "name": "Shaffer Run Trail Loop",
    "lat": 40.080478,
    "lon": -79.244972,
    "osm_id": 818283442,
    "osm_type": "way",
    "score": 0.7127907276153564,
    "pixel_coords": [
      345,
      443
    ]
  },
  {
    "name": "Mountain View Trail Loop",
    "lat": 40.0867924,
    "lon": -79.2471504,
    "osm_id": 865518845,
    "osm_type": "way",
    "score": 0.7127907276153564,
    "pixel_coords": [
      345,
      443
    ]
  },
  {
    "name": "Trail_920547121",
    "lat": 40.0812038,
    "lon": -79.248317,
    "osm_id": 920547121,
    "osm_type": "way",
    "score": 0.7127907276153564,
    "pixel_coords": [
      345,
      443
    ]
  },
  {
    "name": "Nordic Ski Club",
    "lat": 46.3421653,
    "lon": -79.3188107,
    "osm_id": 202024552,
    "osm_type": "way",
    "score": 0.7126032114028931,
    "pixel_coords": [
      32,
      440
    ]
  },
  {
    "name": "Trail_202024554",
    "lat": 46.344968,
    "lon": -79.3013636,
    "osm_id": 202024554,
    "osm_type": "way",
    "score": 0.7126032114028931,
    "pixel_coords": [
      32,
      440
    ]
  },
  {
    "name": "Trail_202024556",
    "lat": 46.3443392,
    "lon": -79.3043366,
    "osm_id": 202024556,
    "osm_type": "way",
    "score": 0.7126032114028931,
    "pixel_coords": [
      32,
      440
    ]
  },
  {
    "name": "Wasaga Nordic and Trail Centre",
    "lat": 44.5159016,
    "lon": -80.0157906,
    "osm_id": 1366667065,
    "osm_type": "way",
    "score": 0.7123254537582397,
    "pixel_coords": [
      124,
      408
    ]
  },
  {
    "name": "Noquemanon Trail",
    "lat": 46.5986468,
    "lon": -87.5452889,
    "osm_id": 17878371,
    "osm_type": "way",
    "score": 0.7120155692100525,
    "pixel_coords": [
      20,
      66
    ]
  },
  {
    "name": "Trail_1157555765",
    "lat": 41.8066707,
    "lon": -78.453537,
    "osm_id": 1157555765,
    "osm_type": "way",
    "score": 0.7114810347557068,
    "pixel_coords": [
      259,
      479
    ]
  },
  {
    "name": "Trail_1157555766",
    "lat": 41.8067466,
    "lon": -78.4533962,
    "osm_id": 1157555766,
    "osm_type": "way",
    "score": 0.7114810347557068,
    "pixel_coords": [
      259,
      479
    ]
  },
  {
    "name": "Peep-O-Day Loop",
    "lat": 46.7219815,
    "lon": -87.5824955,
    "osm_id": 867591303,
    "osm_type": "way",
    "score": 0.7114771604537964,
    "pixel_coords": [
      13,
      64
    ]
  },
  {
    "name": "Davis Trail",
    "lat": 39.0891696,
    "lon": -79.476895,
    "osm_id": 16925481,
    "osm_type": "relation",
    "score": 0.7112711668014526,
    "pixel_coords": [
      395,
      432
    ]
  },
  {
    "name": "Trail_609759454",
    "lat": 44.2367696,
    "lon": -85.7450706,
    "osm_id": 609759454,
    "osm_type": "way",
    "score": 0.7112218141555786,
    "pixel_coords": [
      138,
      147
    ]
  },
  {
    "name": "Trail_1351615696",
    "lat": 44.2397153,
    "lon": -85.7444139,
    "osm_id": 1351615696,
    "osm_type": "way",
    "score": 0.7112218141555786,
    "pixel_coords": [
      138,
      147
    ]
  },
  {
    "name": "Mount Pleasant of Edinboro",
    "lat": 41.8510201,
    "lon": -80.0749979,
    "osm_id": 860101380,
    "osm_type": "way",
    "score": 0.7107992172241211,
    "pixel_coords": [
      257,
      405
    ]
  },
  {
    "name": "1st Cutoff",
    "lat": 46.5954589,
    "lon": -87.5002999,
    "osm_id": 771484060,
    "osm_type": "way",
    "score": 0.708893358707428,
    "pixel_coords": [
      20,
      68
    ]
  },
  {
    "name": "Bagwaji",
    "lat": 46.5923247,
    "lon": -87.4962585,
    "osm_id": 771484064,
    "osm_type": "way",
    "score": 0.708893358707428,
    "pixel_coords": [
      20,
      68
    ]
  },
  {
    "name": "Animoosh to Noque 11.5K",
    "lat": 46.588151,
    "lon": -87.4981731,
    "osm_id": 771484066,
    "osm_type": "way",
    "score": 0.708893358707428,
    "pixel_coords": [
      20,
      68
    ]
  },
  {
    "name": "Animoosh to Grand Central",
    "lat": 46.5899983,
    "lon": -87.500371,
    "osm_id": 771484069,
    "osm_type": "way",
    "score": 0.708893358707428,
    "pixel_coords": [
      20,
      68
    ]
  },
  {
    "name": "Boozhoo",
    "lat": 46.582852,
    "lon": -87.4837729,
    "osm_id": 771484070,
    "osm_type": "way",
    "score": 0.708893358707428,
    "pixel_coords": [
      20,
      68
    ]
  },
  {
    "name": "Waaban",
    "lat": 46.5922428,
    "lon": -87.4999262,
    "osm_id": 771484073,
    "osm_type": "way",
    "score": 0.708893358707428,
    "pixel_coords": [
      20,
      68
    ]
  },
  {
    "name": "Migizi",
    "lat": 46.5899507,
    "lon": -87.4959946,
    "osm_id": 771484077,
    "osm_type": "way",
    "score": 0.708893358707428,
    "pixel_coords": [
      20,
      68
    ]
  },
  {
    "name": "Zhing",
    "lat": 46.5821971,
    "lon": -87.4826905,
    "osm_id": 771484078,
    "osm_type": "way",
    "score": 0.708893358707428,
    "pixel_coords": [
      20,
      68
    ]
  },
  {
    "name": "Gookookoo",
    "lat": 46.5860681,
    "lon": -87.4877858,
    "osm_id": 773562024,
    "osm_type": "way",
    "score": 0.708893358707428,
    "pixel_coords": [
      20,
      68
    ]
  },
  {
    "name": "NTN Forestville Other Trails",
    "lat": 46.5917292,
    "lon": -87.4925315,
    "osm_id": 12104438,
    "osm_type": "relation",
    "score": 0.708893358707428,
    "pixel_coords": [
      20,
      68
    ]
  },
  {
    "name": "Trail_1233418314",
    "lat": 43.0360534,
    "lon": -85.5024143,
    "osm_id": 1233418314,
    "osm_type": "way",
    "score": 0.7081748247146606,
    "pixel_coords": [
      198,
      158
    ]
  },
  {
    "name": "Trail_1266092792",
    "lat": 44.029916,
    "lon": -79.0600163,
    "osm_id": 1266092792,
    "osm_type": "way",
    "score": 0.7075755000114441,
    "pixel_coords": [
      148,
      451
    ]
  },
  {
    "name": "South Shore Trail",
    "lat": 41.3878356,
    "lon": -80.0996791,
    "osm_id": 368329400,
    "osm_type": "way",
    "score": 0.7070879936218262,
    "pixel_coords": [
      280,
      404
    ]
  },
  {
    "name": "Sproul Loop Trail",
    "lat": 39.8941775,
    "lon": -79.4886489,
    "osm_id": 11870373,
    "osm_type": "way",
    "score": 0.7063244581222534,
    "pixel_coords": [
      355,
      432
    ]
  },
  {
    "name": "Burd Loop Trail",
    "lat": 39.8939458,
    "lon": -79.4857121,
    "osm_id": 866146886,
    "osm_type": "way",
    "score": 0.7063244581222534,
    "pixel_coords": [
      355,
      432
    ]
  },
  {
    "name": "Beech Loop Trail",
    "lat": 39.8864218,
    "lon": -79.4895762,
    "osm_id": 866148319,
    "osm_type": "way",
    "score": 0.7063244581222534,
    "pixel_coords": [
      355,
      432
    ]
  },
  {
    "name": "Chulens Trail",
    "lat": 39.8898695,
    "lon": -79.4869101,
    "osm_id": 1250946349,
    "osm_type": "way",
    "score": 0.7063244581222534,
    "pixel_coords": [
      355,
      432
    ]
  },
  {
    "name": "Trail_1250946350",
    "lat": 39.8938635,
    "lon": -79.4886696,
    "osm_id": 1250946350,
    "osm_type": "way",
    "score": 0.7063244581222534,
    "pixel_coords": [
      355,
      432
    ]
  },
  {
    "name": "Ski Trail - Heart Loop",
    "lat": 43.4190315,
    "lon": -86.2088977,
    "osm_id": 1096446847,
    "osm_type": "way",
    "score": 0.7061936259269714,
    "pixel_coords": [
      179,
      126
    ]
  },
  {
    "name": "Ski Trail -Green",
    "lat": 43.4146949,
    "lon": -86.2082027,
    "osm_id": 1096446848,
    "osm_type": "way",
    "score": 0.7061936259269714,
    "pixel_coords": [
      179,
      126
    ]
  },
  {
    "name": "Ski Trail - Orange",
    "lat": 43.4196084,
    "lon": -86.2135174,
    "osm_id": 1096451374,
    "osm_type": "way",
    "score": 0.7061936259269714,
    "pixel_coords": [
      179,
      126
    ]
  },
  {
    "name": "Ski Trail - Green",
    "lat": 43.4146949,
    "lon": -86.2082027,
    "osm_id": 14635352,
    "osm_type": "relation",
    "score": 0.7061936259269714,
    "pixel_coords": [
      179,
      126
    ]
  },
  {
    "name": "Lake / Cross Country Trail",
    "lat": 41.2155403,
    "lon": -81.5244931,
    "osm_id": 1151052971,
    "osm_type": "way",
    "score": 0.7047619223594666,
    "pixel_coords": [
      289,
      339
    ]
  },
  {
    "name": "Trail_1151052972",
    "lat": 41.2151842,
    "lon": -81.525452,
    "osm_id": 1151052972,
    "osm_type": "way",
    "score": 0.7047619223594666,
    "pixel_coords": [
      289,
      339
    ]
  },
  {
    "name": "Washburn Hill",
    "lat": 46.71521,
    "lon": -87.5803645,
    "osm_id": 867591296,
    "osm_type": "way",
    "score": 0.704400360584259,
    "pixel_coords": [
      14,
      64
    ]
  },
  {
    "name": "Corkscrew",
    "lat": 46.7138773,
    "lon": -87.587138,
    "osm_id": 867591297,
    "osm_type": "way",
    "score": 0.704400360584259,
    "pixel_coords": [
      14,
      64
    ]
  },
  {
    "name": "Overlook",
    "lat": 46.7114677,
    "lon": -87.5848391,
    "osm_id": 867591298,
    "osm_type": "way",
    "score": 0.704400360584259,
    "pixel_coords": [
      14,
      64
    ]
  },
  {
    "name": "Hemlock",
    "lat": 46.7144901,
    "lon": -87.5852351,
    "osm_id": 867591299,
    "osm_type": "way",
    "score": 0.704400360584259,
    "pixel_coords": [
      14,
      64
    ]
  },
  {
    "name": "The Beast",
    "lat": 46.7100567,
    "lon": -87.585153,
    "osm_id": 867591301,
    "osm_type": "way",
    "score": 0.704400360584259,
    "pixel_coords": [
      14,
      64
    ]
  },
  {
    "name": "The Plunge",
    "lat": 46.7176946,
    "lon": -87.584039,
    "osm_id": 867591302,
    "osm_type": "way",
    "score": 0.704400360584259,
    "pixel_coords": [
      14,
      64
    ]
  },
  {
    "name": "Wilson Creek",
    "lat": 46.7065865,
    "lon": -87.5866757,
    "osm_id": 867591305,
    "osm_type": "way",
    "score": 0.704400360584259,
    "pixel_coords": [
      14,
      64
    ]
  },
  {
    "name": "Backside",
    "lat": 46.7188731,
    "lon": -87.584856,
    "osm_id": 1082104655,
    "osm_type": "way",
    "score": 0.704400360584259,
    "pixel_coords": [
      14,
      64
    ]
  },
  {
    "name": "Low Road",
    "lat": 46.7116636,
    "lon": -87.5822648,
    "osm_id": 1082116835,
    "osm_type": "way",
    "score": 0.704400360584259,
    "pixel_coords": [
      14,
      64
    ]
  },
  {
    "name": "Trail_1429259439",
    "lat": 46.7198995,
    "lon": -87.5876799,
    "osm_id": 1429259439,
    "osm_type": "way",
    "score": 0.704400360584259,
    "pixel_coords": [
      14,
      64
    ]
  },
  {
    "name": "Noquemanon Trail Network Saux Head Trails",
    "lat": 46.7135188,
    "lon": -87.5844929,
    "osm_id": 11842303,
    "osm_type": "relation",
    "score": 0.704400360584259,
    "pixel_coords": [
      14,
      64
    ]
  },
  {
    "name": "Mabel Hills",
    "lat": 46.6054801,
    "lon": -84.2364502,
    "osm_id": 999982963,
    "osm_type": "way",
    "score": 0.7035793662071228,
    "pixel_coords": [
      19,
      216
    ]
  },
  {
    "name": "Crystal Mountain",
    "lat": 44.5239868,
    "lon": -85.996751,
    "osm_id": 1155757094,
    "osm_type": "way",
    "score": 0.7033316493034363,
    "pixel_coords": [
      123,
      136
    ]
  },
  {
    "name": "Snow Trails",
    "lat": 40.6711595,
    "lon": -82.5020085,
    "osm_id": 456236227,
    "osm_type": "way",
    "score": 0.7032098770141602,
    "pixel_coords": [
      316,
      295
    ]
  },
  {
    "name": "Blue Loop",
    "lat": 42.8700221,
    "lon": -88.5267123,
    "osm_id": 519460518,
    "osm_type": "way",
    "score": 0.6994903683662415,
    "pixel_coords": [
      206,
      21
    ]
  },
  {
    "name": "Trail_519460519",
    "lat": 42.8717669,
    "lon": -88.5166096,
    "osm_id": 519460519,
    "osm_type": "way",
    "score": 0.6994903683662415,
    "pixel_coords": [
      206,
      21
    ]
  },
  {
    "name": "White Loop",
    "lat": 42.8622309,
    "lon": -88.529683,
    "osm_id": 671819182,
    "osm_type": "way",
    "score": 0.6994903683662415,
    "pixel_coords": [
      206,
      21
    ]
  },
  {
    "name": "Green Loop",
    "lat": 42.8641212,
    "lon": -88.5323516,
    "osm_id": 671819186,
    "osm_type": "way",
    "score": 0.6994903683662415,
    "pixel_coords": [
      206,
      21
    ]
  },
  {
    "name": "Trail_1239139568",
    "lat": 42.8602293,
    "lon": -88.5176395,
    "osm_id": 1239139568,
    "osm_type": "way",
    "score": 0.6994903683662415,
    "pixel_coords": [
      206,
      21
    ]
  },
  {
    "name": "Trail_1239139571",
    "lat": 42.8648262,
    "lon": -88.5164188,
    "osm_id": 1239139571,
    "osm_type": "way",
    "score": 0.6994903683662415,
    "pixel_coords": [
      206,
      21
    ]
  },
  {
    "name": "Snowshoe Mountain",
    "lat": 38.4122598,
    "lon": -80.0007221,
    "osm_id": 1244062674,
    "osm_type": "way",
    "score": 0.6990573406219482,
    "pixel_coords": [
      429,
      409
    ]
  },
  {
    "name": "Millennium Trail",
    "lat": 42.256757,
    "lon": -88.0887778,
    "osm_id": 277915881,
    "osm_type": "way",
    "score": 0.6983435153961182,
    "pixel_coords": [
      237,
      41
    ]
  },
  {
    "name": "Trail_558631518",
    "lat": 42.2571589,
    "lon": -88.0939316,
    "osm_id": 558631518,
    "osm_type": "way",
    "score": 0.6983435153961182,
    "pixel_coords": [
      237,
      41
    ]
  },
  {
    "name": "Trail_1340299510",
    "lat": 42.2596128,
    "lon": -88.094848,
    "osm_id": 1340299510,
    "osm_type": "way",
    "score": 0.6983435153961182,
    "pixel_coords": [
      237,
      41
    ]
  },
  {
    "name": "Trail_1340299511",
    "lat": 42.2590436,
    "lon": -88.095768,
    "osm_id": 1340299511,
    "osm_type": "way",
    "score": 0.6983435153961182,
    "pixel_coords": [
      237,
      41
    ]
  },
  {
    "name": "Lakewood Forest Preserve Trail",
    "lat": 42.2583245,
    "lon": -88.0944154,
    "osm_id": 16935890,
    "osm_type": "relation",
    "score": 0.6983435153961182,
    "pixel_coords": [
      237,
      41
    ]
  },
  {
    "name": "Hidden Valley Resort",
    "lat": 40.0587984,
    "lon": -79.2518759,
    "osm_id": 398100052,
    "osm_type": "way",
    "score": 0.698302686214447,
    "pixel_coords": [
      347,
      443
    ]
  },
  {
    "name": "Summit Mountain",
    "lat": 44.9471459,
    "lon": -85.1875304,
    "osm_id": 1021916703,
    "osm_type": "way",
    "score": 0.6978803873062134,
    "pixel_coords": [
      102,
      173
    ]
  },
  {
    "name": "Ski Trail - Pink",
    "lat": 43.4155609,
    "lon": -86.2005865,
    "osm_id": 1096446846,
    "osm_type": "way",
    "score": 0.6977941393852234,
    "pixel_coords": [
      179,
      127
    ]
  },
  {
    "name": "Trail_867577769",
    "lat": 46.4417675,
    "lon": -87.4123215,
    "osm_id": 867577769,
    "osm_type": "way",
    "score": 0.697208821773529,
    "pixel_coords": [
      27,
      72
    ]
  },
  {
    "name": "Superior Loop",
    "lat": 46.447177,
    "lon": -87.4100596,
    "osm_id": 867577770,
    "osm_type": "way",
    "score": 0.697208821773529,
    "pixel_coords": [
      27,
      72
    ]
  },
  {
    "name": "Wildcat Loop",
    "lat": 46.4500532,
    "lon": -87.3995743,
    "osm_id": 867577771,
    "osm_type": "way",
    "score": 0.697208821773529,
    "pixel_coords": [
      27,
      72
    ]
  },
  {
    "name": "Trail_867577772",
    "lat": 46.4577968,
    "lon": -87.4156292,
    "osm_id": 867577772,
    "osm_type": "way",
    "score": 0.697208821773529,
    "pixel_coords": [
      27,
      72
    ]
  },
  {
    "name": "Trail_867577773",
    "lat": 46.4586989,
    "lon": -87.4146851,
    "osm_id": 867577773,
    "osm_type": "way",
    "score": 0.697208821773529,
    "pixel_coords": [
      27,
      72
    ]
  },
  {
    "name": "Trail_867577775",
    "lat": 46.4483762,
    "lon": -87.41368,
    "osm_id": 867577775,
    "osm_type": "way",
    "score": 0.697208821773529,
    "pixel_coords": [
      27,
      72
    ]
  },
  {
    "name": "Spartan Loop",
    "lat": 46.4560307,
    "lon": -87.40678,
    "osm_id": 867577776,
    "osm_type": "way",
    "score": 0.697208821773529,
    "pixel_coords": [
      27,
      72
    ]
  },
  {
    "name": "Husky Loop",
    "lat": 46.4548342,
    "lon": -87.4132877,
    "osm_id": 867577777,
    "osm_type": "way",
    "score": 0.697208821773529,
    "pixel_coords": [
      27,
      72
    ]
  },
  {
    "name": "Blueberry Ridge Pathway",
    "lat": 46.451514,
    "lon": -87.4108157,
    "osm_id": 6078761,
    "osm_type": "relation",
    "score": 0.697208821773529,
    "pixel_coords": [
      27,
      72
    ]
  },
  {
    "name": "Orange Loop",
    "lat": 42.8587614,
    "lon": -88.5256132,
    "osm_id": 671819205,
    "osm_type": "way",
    "score": 0.6957887411117554,
    "pixel_coords": [
      207,
      21
    ]
  },
  {
    "name": "Trail_940437682",
    "lat": 42.8593985,
    "lon": -88.5184104,
    "osm_id": 940437682,
    "osm_type": "way",
    "score": 0.6957887411117554,
    "pixel_coords": [
      207,
      21
    ]
  },
  {
    "name": "Pierce Drive Scenic Drive Ski Trail",
    "lat": 44.8625233,
    "lon": -86.052668,
    "osm_id": 17882571,
    "osm_type": "relation",
    "score": 0.6957209706306458,
    "pixel_coords": [
      106,
      133
    ]
  },
  {
    "name": "Mohawk Ski Trail",
    "lat": 43.113907,
    "lon": -78.4141753,
    "osm_id": 880305676,
    "osm_type": "way",
    "score": 0.695168673992157,
    "pixel_coords": [
      194,
      481
    ]
  },
  {
    "name": "Cadillac Pathway (#10-#11)",
    "lat": 44.2694681,
    "lon": -85.3757838,
    "osm_id": 283223265,
    "osm_type": "way",
    "score": 0.6950371861457825,
    "pixel_coords": [
      136,
      164
    ]
  },
  {
    "name": "Beech Alley",
    "lat": 42.4791211,
    "lon": -83.7762598,
    "osm_id": 18559508,
    "osm_type": "relation",
    "score": 0.6939685344696045,
    "pixel_coords": [
      226,
      237
    ]
  },
  {
    "name": "Oak HIlls",
    "lat": 42.4782559,
    "lon": -83.774682,
    "osm_id": 18559509,
    "osm_type": "relation",
    "score": 0.6939685344696045,
    "pixel_coords": [
      226,
      237
    ]
  },
  {
    "name": "Trail_1157489412",
    "lat": 41.7906243,
    "lon": -78.4921391,
    "osm_id": 1157489412,
    "osm_type": "way",
    "score": 0.6937551498413086,
    "pixel_coords": [
      260,
      477
    ]
  },
  {
    "name": "Twin Hemlock Loop",
    "lat": 45.0049327,
    "lon": -84.742998,
    "osm_id": 713788710,
    "osm_type": "way",
    "score": 0.6934069991111755,
    "pixel_coords": [
      99,
      193
    ]
  },
  {
    "name": "Relic Pine Loop",
    "lat": 45.0042036,
    "lon": -84.7331597,
    "osm_id": 713788712,
    "osm_type": "way",
    "score": 0.6934069991111755,
    "pixel_coords": [
      99,
      193
    ]
  },
  {
    "name": "Highland Loop",
    "lat": 45.0008173,
    "lon": -84.7332587,
    "osm_id": 713788715,
    "osm_type": "way",
    "score": 0.6934069991111755,
    "pixel_coords": [
      99,
      193
    ]
  },
  {
    "name": "Whoopsy Loop",
    "lat": 45.0020687,
    "lon": -84.7513378,
    "osm_id": 713788718,
    "osm_type": "way",
    "score": 0.6934069991111755,
    "pixel_coords": [
      99,
      193
    ]
  },
  {
    "name": "Pine Baron Pathway",
    "lat": 45.0040882,
    "lon": -84.7434779,
    "osm_id": 11783326,
    "osm_type": "relation",
    "score": 0.6934069991111755,
    "pixel_coords": [
      99,
      193
    ]
  },
  {
    "name": "Trail_1455805622",
    "lat": 43.1602575,
    "lon": -87.9550982,
    "osm_id": 1455805622,
    "osm_type": "way",
    "score": 0.6930034160614014,
    "pixel_coords": [
      191,
      47
    ]
  },
  {
    "name": "Trail_1455805629",
    "lat": 43.1613105,
    "lon": -87.9512169,
    "osm_id": 1455805629,
    "osm_type": "way",
    "score": 0.6930034160614014,
    "pixel_coords": [
      191,
      47
    ]
  },
  {
    "name": "Trail_1455805631",
    "lat": 43.1615623,
    "lon": -87.9512169,
    "osm_id": 1455805631,
    "osm_type": "way",
    "score": 0.6930034160614014,
    "pixel_coords": [
      191,
      47
    ]
  },
  {
    "name": "Lindy Point Trail",
    "lat": 39.1004202,
    "lon": -79.5283024,
    "osm_id": 16925000,
    "osm_type": "relation",
    "score": 0.6929570436477661,
    "pixel_coords": [
      394,
      430
    ]
  },
  {
    "name": "Oak",
    "lat": 44.7134613,
    "lon": -85.4914506,
    "osm_id": 17793516,
    "osm_type": "way",
    "score": 0.6921464800834656,
    "pixel_coords": [
      114,
      159
    ]
  },
  {
    "name": "Pine",
    "lat": 44.7132431,
    "lon": -85.4922609,
    "osm_id": 326137327,
    "osm_type": "way",
    "score": 0.6921464800834656,
    "pixel_coords": [
      114,
      159
    ]
  },
  {
    "name": "Trail_326216211",
    "lat": 44.7141129,
    "lon": -85.4879321,
    "osm_id": 326216211,
    "osm_type": "way",
    "score": 0.6921464800834656,
    "pixel_coords": [
      114,
      159
    ]
  },
  {
    "name": "Trail_886314326",
    "lat": 44.7138068,
    "lon": -85.4937419,
    "osm_id": 886314326,
    "osm_type": "way",
    "score": 0.6921464800834656,
    "pixel_coords": [
      114,
      159
    ]
  },
  {
    "name": "Trail_1351036548",
    "lat": 44.7141709,
    "lon": -85.4858129,
    "osm_id": 1351036548,
    "osm_type": "way",
    "score": 0.6921464800834656,
    "pixel_coords": [
      114,
      159
    ]
  },
  {
    "name": "Trail_112283070",
    "lat": 42.2091477,
    "lon": -88.1617319,
    "osm_id": 112283070,
    "osm_type": "way",
    "score": 0.6920742988586426,
    "pixel_coords": [
      239,
      38
    ]
  },
  {
    "name": "Trail_112283072",
    "lat": 42.2123861,
    "lon": -88.1623644,
    "osm_id": 112283072,
    "osm_type": "way",
    "score": 0.6920742988586426,
    "pixel_coords": [
      239,
      38
    ]
  },
  {
    "name": "Fox Loop",
    "lat": 43.3721931,
    "lon": -88.2530109,
    "osm_id": 1238765810,
    "osm_type": "way",
    "score": 0.6914808750152588,
    "pixel_coords": [
      181,
      33
    ]
  },
  {
    "name": "East Loop",
    "lat": 43.3710144,
    "lon": -88.2527003,
    "osm_id": 1238765812,
    "osm_type": "way",
    "score": 0.6914808750152588,
    "pixel_coords": [
      181,
      33
    ]
  },
  {
    "name": "West Woods Loop",
    "lat": 43.3707931,
    "lon": -88.2548364,
    "osm_id": 1238765814,
    "osm_type": "way",
    "score": 0.6914808750152588,
    "pixel_coords": [
      181,
      33
    ]
  },
  {
    "name": "Lower Trail",
    "lat": 40.4686843,
    "lon": -78.1928701,
    "osm_id": 41818311,
    "osm_type": "way",
    "score": 0.6913487315177917,
    "pixel_coords": [
      326,
      491
    ]
  },
  {
    "name": "Great White Pine Loop",
    "lat": 41.7850308,
    "lon": -86.7568119,
    "osm_id": 833708216,
    "osm_type": "way",
    "score": 0.6909653544425964,
    "pixel_coords": [
      260,
      101
    ]
  },
  {
    "name": "Skunk Cabbage Lane",
    "lat": 41.784321,
    "lon": -86.7577055,
    "osm_id": 833708217,
    "osm_type": "way",
    "score": 0.6909653544425964,
    "pixel_coords": [
      260,
      101
    ]
  },
  {
    "name": "Trail_1449699198",
    "lat": 41.7839916,
    "lon": -86.7585288,
    "osm_id": 1449699198,
    "osm_type": "way",
    "score": 0.6909653544425964,
    "pixel_coords": [
      260,
      101
    ]
  },
  {
    "name": "Snow Valley Ski Resort",
    "lat": 44.4099879,
    "lon": -79.7912348,
    "osm_id": 55866908,
    "osm_type": "way",
    "score": 0.690880298614502,
    "pixel_coords": [
      129,
      418
    ]
  },
  {
    "name": "Trail_623890856",
    "lat": 41.6886345,
    "lon": -87.923063,
    "osm_id": 623890856,
    "osm_type": "way",
    "score": 0.6907817721366882,
    "pixel_coords": [
      265,
      48
    ]
  },
  {
    "name": "Trail_623890857",
    "lat": 41.6887013,
    "lon": -87.9233677,
    "osm_id": 623890857,
    "osm_type": "way",
    "score": 0.6907817721366882,
    "pixel_coords": [
      265,
      48
    ]
  },
  {
    "name": "Sag Trail",
    "lat": 41.690308,
    "lon": -87.9236552,
    "osm_id": 623890858,
    "osm_type": "way",
    "score": 0.6907817721366882,
    "pixel_coords": [
      265,
      48
    ]
  },
  {
    "name": "Trail_623890860",
    "lat": 41.689405,
    "lon": -87.9252336,
    "osm_id": 623890860,
    "osm_type": "way",
    "score": 0.6907817721366882,
    "pixel_coords": [
      265,
      48
    ]
  },
  {
    "name": "Prairie Loop",
    "lat": 41.6880797,
    "lon": -87.9237098,
    "osm_id": 623890863,
    "osm_type": "way",
    "score": 0.6907817721366882,
    "pixel_coords": [
      265,
      48
    ]
  },
  {
    "name": "Trail_1241214749",
    "lat": 41.6892464,
    "lon": -87.9244293,
    "osm_id": 1241214749,
    "osm_type": "way",
    "score": 0.6907817721366882,
    "pixel_coords": [
      265,
      48
    ]
  },
  {
    "name": "Trail_1241214750",
    "lat": 41.6892751,
    "lon": -87.9246473,
    "osm_id": 1241214750,
    "osm_type": "way",
    "score": 0.6907817721366882,
    "pixel_coords": [
      265,
      48
    ]
  },
  {
    "name": "The Baseline",
    "lat": 41.6886345,
    "lon": -87.9230919,
    "osm_id": 16834218,
    "osm_type": "relation",
    "score": 0.6907817721366882,
    "pixel_coords": [
      265,
      48
    ]
  },
  {
    "name": "Trail_1238762147",
    "lat": 42.9827475,
    "lon": -88.1934494,
    "osm_id": 1238762147,
    "osm_type": "way",
    "score": 0.6899349093437195,
    "pixel_coords": [
      200,
      36
    ]
  },
  {
    "name": "Bluegreen Loop",
    "lat": 42.9803535,
    "lon": -88.1928847,
    "osm_id": 1238762148,
    "osm_type": "way",
    "score": 0.6899349093437195,
    "pixel_coords": [
      200,
      36
    ]
  },
  {
    "name": "Trail_1238762157",
    "lat": 42.9856103,
    "lon": -88.1958453,
    "osm_id": 1238762157,
    "osm_type": "way",
    "score": 0.6899349093437195,
    "pixel_coords": [
      200,
      36
    ]
  },
  {
    "name": "Warmup",
    "lat": 44.4868436,
    "lon": -80.314589,
    "osm_id": 189156190,
    "osm_type": "way",
    "score": 0.6898989081382751,
    "pixel_coords": [
      125,
      394
    ]
  },
  {
    "name": "Eagle's Flight",
    "lat": 44.4831766,
    "lon": -80.3136541,
    "osm_id": 268528807,
    "osm_type": "way",
    "score": 0.6898989081382751,
    "pixel_coords": [
      125,
      394
    ]
  },
  {
    "name": "North West Passage",
    "lat": 44.4829473,
    "lon": -80.318706,
    "osm_id": 268530130,
    "osm_type": "way",
    "score": 0.6898989081382751,
    "pixel_coords": [
      125,
      394
    ]
  },
  {
    "name": "Georgian View Return",
    "lat": 44.4818548,
    "lon": -80.3130062,
    "osm_id": 268802676,
    "osm_type": "way",
    "score": 0.6898989081382751,
    "pixel_coords": [
      125,
      394
    ]
  },
  {
    "name": "Lookout Point",
    "lat": 44.4821874,
    "lon": -80.316392,
    "osm_id": 268802680,
    "osm_type": "way",
    "score": 0.6898989081382751,
    "pixel_coords": [
      125,
      394
    ]
  },
  {
    "name": "Logan's Run",
    "lat": 44.4865026,
    "lon": -80.3189742,
    "osm_id": 456870188,
    "osm_type": "way",
    "score": 0.6898989081382751,
    "pixel_coords": [
      125,
      394
    ]
  },
  {
    "name": "Skater's In",
    "lat": 44.4857569,
    "lon": -80.313035,
    "osm_id": 496736839,
    "osm_type": "way",
    "score": 0.6898989081382751,
    "pixel_coords": [
      125,
      394
    ]
  },
  {
    "name": "Murphy's Romp",
    "lat": 44.483476,
    "lon": -80.3102172,
    "osm_id": 496736840,
    "osm_type": "way",
    "score": 0.6898989081382751,
    "pixel_coords": [
      125,
      394
    ]
  },
  {
    "name": "Trail_922345618",
    "lat": 44.4854555,
    "lon": -80.3122879,
    "osm_id": 922345618,
    "osm_type": "way",
    "score": 0.6898989081382751,
    "pixel_coords": [
      125,
      394
    ]
  },
  {
    "name": "Lemon Squeezy",
    "lat": 44.4849174,
    "lon": -80.3135079,
    "osm_id": 922345619,
    "osm_type": "way",
    "score": 0.6898989081382751,
    "pixel_coords": [
      125,
      394
    ]
  },
  {
    "name": "Trail_922345625",
    "lat": 44.4849281,
    "lon": -80.3127636,
    "osm_id": 922345625,
    "osm_type": "way",
    "score": 0.6898989081382751,
    "pixel_coords": [
      125,
      394
    ]
  },
  {
    "name": "Blue Mountain Ski Resort",
    "lat": 44.4998755,
    "lon": -80.3188858,
    "osm_id": 1040649718,
    "osm_type": "way",
    "score": 0.6898989081382751,
    "pixel_coords": [
      125,
      394
    ]
  },
  {
    "name": "Minnesing Trail - Sugar Bush Run",
    "lat": 45.5632585,
    "lon": -78.6055505,
    "osm_id": 41283870,
    "osm_type": "way",
    "score": 0.6889147758483887,
    "pixel_coords": [
      71,
      472
    ]
  },
  {
    "name": "Minnesing Trail - Timber Slide",
    "lat": 45.570713,
    "lon": -78.603234,
    "osm_id": 283328815,
    "osm_type": "way",
    "score": 0.6889147758483887,
    "pixel_coords": [
      71,
      472
    ]
  },
  {
    "name": "Lost Girl Trail",
    "lat": 40.0243929,
    "lon": -79.3105674,
    "osm_id": 256499121,
    "osm_type": "way",
    "score": 0.6888777613639832,
    "pixel_coords": [
      348,
      440
    ]
  },
  {
    "name": "Negaunee Township Community Center Trail",
    "lat": 46.5263115,
    "lon": -87.5453047,
    "osm_id": 1173837615,
    "osm_type": "way",
    "score": 0.6884720921516418,
    "pixel_coords": [
      23,
      66
    ]
  },
  {
    "name": "Blue/Green/Orange Trail",
    "lat": 46.5249154,
    "lon": -87.5446733,
    "osm_id": 1173837616,
    "osm_type": "way",
    "score": 0.6884720921516418,
    "pixel_coords": [
      23,
      66
    ]
  },
  {
    "name": "Blue/Orange Trail",
    "lat": 46.5233317,
    "lon": -87.543002,
    "osm_id": 1173837620,
    "osm_type": "way",
    "score": 0.6884720921516418,
    "pixel_coords": [
      23,
      66
    ]
  },
  {
    "name": "Green/Orange",
    "lat": 46.5208033,
    "lon": -87.5444841,
    "osm_id": 1394868469,
    "osm_type": "way",
    "score": 0.6884720921516418,
    "pixel_coords": [
      23,
      66
    ]
  },
  {
    "name": "Blue/Red Trail",
    "lat": 46.5233317,
    "lon": -87.5423694,
    "osm_id": 1394868470,
    "osm_type": "way",
    "score": 0.6884720921516418,
    "pixel_coords": [
      23,
      66
    ]
  },
  {
    "name": "Trail_201353081",
    "lat": 46.3445086,
    "lon": -79.4951286,
    "osm_id": 201353081,
    "osm_type": "way",
    "score": 0.6881817579269409,
    "pixel_coords": [
      32,
      432
    ]
  },
  {
    "name": "Trail_201353086",
    "lat": 46.3464229,
    "lon": -79.4957281,
    "osm_id": 201353086,
    "osm_type": "way",
    "score": 0.6881817579269409,
    "pixel_coords": [
      32,
      432
    ]
  },
  {
    "name": "Trail_201353087",
    "lat": 46.3466669,
    "lon": -79.4920573,
    "osm_id": 201353087,
    "osm_type": "way",
    "score": 0.6881817579269409,
    "pixel_coords": [
      32,
      432
    ]
  },
  {
    "name": "Trail_201353088",
    "lat": 46.3467079,
    "lon": -79.4955937,
    "osm_id": 201353088,
    "osm_type": "way",
    "score": 0.6881817579269409,
    "pixel_coords": [
      32,
      432
    ]
  },
  {
    "name": "Trail_201353089",
    "lat": 46.3446229,
    "lon": -79.4950089,
    "osm_id": 201353089,
    "osm_type": "way",
    "score": 0.6881817579269409,
    "pixel_coords": [
      32,
      432
    ]
  },
  {
    "name": "Trail_58908324",
    "lat": 43.4815665,
    "lon": -80.4924136,
    "osm_id": 58908324,
    "osm_type": "way",
    "score": 0.687516987323761,
    "pixel_coords": [
      175,
      386
    ]
  },
  {
    "name": "Trail_1160316220",
    "lat": 43.4821218,
    "lon": -80.492003,
    "osm_id": 1160316220,
    "osm_type": "way",
    "score": 0.687516987323761,
    "pixel_coords": [
      175,
      386
    ]
  },
  {
    "name": "Trail_1160316223",
    "lat": 43.4810363,
    "lon": -80.4917402,
    "osm_id": 1160316223,
    "osm_type": "way",
    "score": 0.687516987323761,
    "pixel_coords": [
      175,
      386
    ]
  },
  {
    "name": "Trail_1160316224",
    "lat": 43.4812162,
    "lon": -80.4930244,
    "osm_id": 1160316224,
    "osm_type": "way",
    "score": 0.687516987323761,
    "pixel_coords": [
      175,
      386
    ]
  },
  {
    "name": "Bechtel Park Cross Country Ski Trail",
    "lat": 43.4827073,
    "lon": -80.4922333,
    "osm_id": 1160316225,
    "osm_type": "way",
    "score": 0.687516987323761,
    "pixel_coords": [
      175,
      386
    ]
  },
  {
    "name": "Trail_1434415342",
    "lat": 43.4814197,
    "lon": -80.4911294,
    "osm_id": 1434415342,
    "osm_type": "way",
    "score": 0.687516987323761,
    "pixel_coords": [
      175,
      386
    ]
  },
  {
    "name": "Trail_945870927",
    "lat": 39.9467705,
    "lon": -79.3555425,
    "osm_id": 945870927,
    "osm_type": "way",
    "score": 0.6874600648880005,
    "pixel_coords": [
      352,
      438
    ]
  },
  {
    "name": "Kirk Rout",
    "lat": 45.4771634,
    "lon": -84.9516455,
    "osm_id": 691891577,
    "osm_type": "way",
    "score": 0.6874066591262817,
    "pixel_coords": [
      76,
      184
    ]
  },
  {
    "name": "Wester Ross",
    "lat": 45.4799369,
    "lon": -84.9350936,
    "osm_id": 691891615,
    "osm_type": "way",
    "score": 0.6874066591262817,
    "pixel_coords": [
      76,
      184
    ]
  },
  {
    "name": "Boyne Highlands Resort",
    "lat": 45.4771453,
    "lon": -84.9398744,
    "osm_id": 997160539,
    "osm_type": "way",
    "score": 0.6874066591262817,
    "pixel_coords": [
      76,
      184
    ]
  },
  {
    "name": "Swayze Express",
    "lat": 45.4732475,
    "lon": -84.9498915,
    "osm_id": 1072061510,
    "osm_type": "way",
    "score": 0.6874066591262817,
    "pixel_coords": [
      76,
      184
    ]
  },
  {
    "name": "Trail_328375356",
    "lat": 43.030825,
    "lon": -88.3943803,
    "osm_id": 328375356,
    "osm_type": "way",
    "score": 0.6868464350700378,
    "pixel_coords": [
      198,
      27
    ]
  },
  {
    "name": "Trail_353890499",
    "lat": 43.0329076,
    "lon": -88.3873404,
    "osm_id": 353890499,
    "osm_type": "way",
    "score": 0.6868464350700378,
    "pixel_coords": [
      198,
      27
    ]
  },
  {
    "name": "Trail_464351595",
    "lat": 43.0384713,
    "lon": -88.3899586,
    "osm_id": 464351595,
    "osm_type": "way",
    "score": 0.6868464350700378,
    "pixel_coords": [
      198,
      27
    ]
  },
  {
    "name": "Upper Big Slide",
    "lat": 43.0324863,
    "lon": -88.3968383,
    "osm_id": 487547531,
    "osm_type": "way",
    "score": 0.6868464350700378,
    "pixel_coords": [
      198,
      27
    ]
  },
  {
    "name": "Trail_487547535",
    "lat": 43.034923,
    "lon": -88.3892553,
    "osm_id": 487547535,
    "osm_type": "way",
    "score": 0.6868464350700378,
    "pixel_coords": [
      198,
      27
    ]
  },
  {
    "name": "Trail_487547538",
    "lat": 43.0369233,
    "lon": -88.389227,
    "osm_id": 487547538,
    "osm_type": "way",
    "score": 0.6868464350700378,
    "pixel_coords": [
      198,
      27
    ]
  },
  {
    "name": "Asthma Hill",
    "lat": 43.0385833,
    "lon": -88.3906349,
    "osm_id": 487547540,
    "osm_type": "way",
    "score": 0.6868464350700378,
    "pixel_coords": [
      198,
      27
    ]
  },
  {
    "name": "Trail_487547542",
    "lat": 43.0395447,
    "lon": -88.3919773,
    "osm_id": 487547542,
    "osm_type": "way",
    "score": 0.6868464350700378,
    "pixel_coords": [
      198,
      27
    ]
  },
  {
    "name": "Trail_487547544",
    "lat": 43.0364078,
    "lon": -88.3888103,
    "osm_id": 487547544,
    "osm_type": "way",
    "score": 0.6868464350700378,
    "pixel_coords": [
      198,
      27
    ]
  },
  {
    "name": "Trail_487547546",
    "lat": 43.0361153,
    "lon": -88.3891605,
    "osm_id": 487547546,
    "osm_type": "way",
    "score": 0.6868464350700378,
    "pixel_coords": [
      198,
      27
    ]
  },
  {
    "name": "Trail_487547547",
    "lat": 43.0344914,
    "lon": -88.3864424,
    "osm_id": 487547547,
    "osm_type": "way",
    "score": 0.6868464350700378,
    "pixel_coords": [
      198,
      27
    ]
  },
  {
    "name": "Trail_487547548",
    "lat": 43.0347295,
    "lon": -88.3881428,
    "osm_id": 487547548,
    "osm_type": "way",
    "score": 0.6868464350700378,
    "pixel_coords": [
      198,
      27
    ]
  },
  {
    "name": "Tower Hill",
    "lat": 43.0315648,
    "lon": -88.3904732,
    "osm_id": 487547551,
    "osm_type": "way",
    "score": 0.6868464350700378,
    "pixel_coords": [
      198,
      27
    ]
  },
  {
    "name": "Stairway to Heaven",
    "lat": 43.0303727,
    "lon": -88.3926919,
    "osm_id": 487547552,
    "osm_type": "way",
    "score": 0.6868464350700378,
    "pixel_coords": [
      198,
      27
    ]
  },
  {
    "name": "South Field",
    "lat": 43.0350205,
    "lon": -88.4024836,
    "osm_id": 929753955,
    "osm_type": "way",
    "score": 0.6868464350700378,
    "pixel_coords": [
      198,
      27
    ]
  },
  {
    "name": "Trail_929753957",
    "lat": 43.038601,
    "lon": -88.3931934,
    "osm_id": 929753957,
    "osm_type": "way",
    "score": 0.6868464350700378,
    "pixel_coords": [
      198,
      27
    ]
  },
  {
    "name": "Trail_945239172",
    "lat": 43.039753,
    "lon": -88.3926196,
    "osm_id": 945239172,
    "osm_type": "way",
    "score": 0.6868464350700378,
    "pixel_coords": [
      198,
      27
    ]
  },
  {
    "name": "Hoot Owl Hill",
    "lat": 43.0386843,
    "lon": -88.3950066,
    "osm_id": 1009020920,
    "osm_type": "way",
    "score": 0.6868464350700378,
    "pixel_coords": [
      198,
      27
    ]
  },
  {
    "name": "Two Tier Hill",
    "lat": 43.0375769,
    "lon": -88.3945686,
    "osm_id": 1009020921,
    "osm_type": "way",
    "score": 0.6868464350700378,
    "pixel_coords": [
      198,
      27
    ]
  },
  {
    "name": "Big Valley",
    "lat": 43.0296788,
    "lon": -88.3910116,
    "osm_id": 1009021550,
    "osm_type": "way",
    "score": 0.6868464350700378,
    "pixel_coords": [
      198,
      27
    ]
  },
  {
    "name": "Wiggly Squiggly",
    "lat": 43.0305709,
    "lon": -88.3864929,
    "osm_id": 1009021553,
    "osm_type": "way",
    "score": 0.6868464350700378,
    "pixel_coords": [
      198,
      27
    ]
  },
  {
    "name": "Subdivision Hill",
    "lat": 43.0352014,
    "lon": -88.3860607,
    "osm_id": 1009021555,
    "osm_type": "way",
    "score": 0.6868464350700378,
    "pixel_coords": [
      198,
      27
    ]
  },
  {
    "name": "Trail_1009021557",
    "lat": 43.0328549,
    "lon": -88.388961,
    "osm_id": 1009021557,
    "osm_type": "way",
    "score": 0.6868464350700378,
    "pixel_coords": [
      198,
      27
    ]
  },
  {
    "name": "Trail_1009021558",
    "lat": 43.0369548,
    "lon": -88.3878851,
    "osm_id": 1009021558,
    "osm_type": "way",
    "score": 0.6868464350700378,
    "pixel_coords": [
      198,
      27
    ]
  },
  {
    "name": "South Hill",
    "lat": 43.0326693,
    "lon": -88.4009783,
    "osm_id": 1239159689,
    "osm_type": "way",
    "score": 0.6868464350700378,
    "pixel_coords": [
      198,
      27
    ]
  },
  {
    "name": "Lower Big Slide",
    "lat": 43.03362,
    "lon": -88.4008068,
    "osm_id": 1239159690,
    "osm_type": "way",
    "score": 0.6868464350700378,
    "pixel_coords": [
      198,
      27
    ]
  },
  {
    "name": "Trail_1239159692",
    "lat": 43.0395889,
    "lon": -88.3924086,
    "osm_id": 1239159692,
    "osm_type": "way",
    "score": 0.6868464350700378,
    "pixel_coords": [
      198,
      27
    ]
  },
  {
    "name": "Gut Buster",
    "lat": 43.0312382,
    "lon": -88.3971915,
    "osm_id": 1239159693,
    "osm_type": "way",
    "score": 0.6868464350700378,
    "pixel_coords": [
      198,
      27
    ]
  },
  {
    "name": "Trail_1239159697",
    "lat": 43.039707,
    "lon": -88.3921883,
    "osm_id": 1239159697,
    "osm_type": "way",
    "score": 0.6868464350700378,
    "pixel_coords": [
      198,
      27
    ]
  },
  {
    "name": "Moraine Ridge Trail",
    "lat": 43.0398857,
    "lon": -88.3925785,
    "osm_id": 1239159698,
    "osm_type": "way",
    "score": 0.6868464350700378,
    "pixel_coords": [
      198,
      27
    ]
  },
  {
    "name": "Old Tail End",
    "lat": 43.0396385,
    "lon": -88.398722,
    "osm_id": 1241554082,
    "osm_type": "way",
    "score": 0.6868464350700378,
    "pixel_coords": [
      198,
      27
    ]
  },
  {
    "name": "Rock Ridge",
    "lat": 43.0386391,
    "lon": -88.386705,
    "osm_id": 1241554087,
    "osm_type": "way",
    "score": 0.6868464350700378,
    "pixel_coords": [
      198,
      27
    ]
  },
  {
    "name": "Trail_1326407024",
    "lat": 43.0330113,
    "lon": -88.3853184,
    "osm_id": 1326407024,
    "osm_type": "way",
    "score": 0.6868464350700378,
    "pixel_coords": [
      198,
      27
    ]
  },
  {
    "name": "Trail_1326407025",
    "lat": 43.0319697,
    "lon": -88.3849206,
    "osm_id": 1326407025,
    "osm_type": "way",
    "score": 0.6868464350700378,
    "pixel_coords": [
      198,
      27
    ]
  },
  {
    "name": "Man-made Snow",
    "lat": 43.0395706,
    "lon": -88.3993008,
    "osm_id": 13508570,
    "osm_type": "relation",
    "score": 0.6868464350700378,
    "pixel_coords": [
      198,
      27
    ]
  },
  {
    "name": "Meadow Trail",
    "lat": 43.0375066,
    "lon": -88.399987,
    "osm_id": 17018036,
    "osm_type": "relation",
    "score": 0.6868464350700378,
    "pixel_coords": [
      198,
      27
    ]
  },
  {
    "name": "Kettle View Trail",
    "lat": 43.0355341,
    "lon": -88.3940891,
    "osm_id": 17018037,
    "osm_type": "relation",
    "score": 0.6868464350700378,
    "pixel_coords": [
      198,
      27
    ]
  },
  {
    "name": "Kame Terrace Trail",
    "lat": 43.0359212,
    "lon": -88.3890059,
    "osm_id": 17018039,
    "osm_type": "relation",
    "score": 0.6868464350700378,
    "pixel_coords": [
      198,
      27
    ]
  },
  {
    "name": "Bluebird Trail",
    "lat": 41.8188603,
    "lon": -88.1277845,
    "osm_id": 30746587,
    "osm_type": "way",
    "score": 0.6861468553543091,
    "pixel_coords": [
      259,
      39
    ]
  },
  {
    "name": "Green Heron Trail",
    "lat": 41.8156729,
    "lon": -88.1377001,
    "osm_id": 30746588,
    "osm_type": "way",
    "score": 0.6861468553543091,
    "pixel_coords": [
      259,
      39
    ]
  },
  {
    "name": "Skate-Ski Trail",
    "lat": 45.5242358,
    "lon": -84.2532304,
    "osm_id": 861102708,
    "osm_type": "way",
    "score": 0.6859343647956848,
    "pixel_coords": [
      73,
      215
    ]
  },
  {
    "name": "Trail_867577767",
    "lat": 46.4607611,
    "lon": -87.4242776,
    "osm_id": 867577767,
    "osm_type": "way",
    "score": 0.6858688592910767,
    "pixel_coords": [
      26,
      71
    ]
  },
  {
    "name": "Green Trail By-Pass",
    "lat": 44.7826367,
    "lon": -84.7104588,
    "osm_id": 1227705017,
    "osm_type": "way",
    "score": 0.6852473020553589,
    "pixel_coords": [
      110,
      194
    ]
  },
  {
    "name": "Trail_1174103738",
    "lat": 42.2868628,
    "lon": -87.8663203,
    "osm_id": 1174103738,
    "osm_type": "way",
    "score": 0.6848019957542419,
    "pixel_coords": [
      235,
      51
    ]
  },
  {
    "name": "Trail_1174103740",
    "lat": 42.2842265,
    "lon": -87.8652069,
    "osm_id": 1174103740,
    "osm_type": "way",
    "score": 0.6848019957542419,
    "pixel_coords": [
      235,
      51
    ]
  },
  {
    "name": "Trail_1240486794",
    "lat": 42.286895,
    "lon": -87.8660564,
    "osm_id": 1240486794,
    "osm_type": "way",
    "score": 0.6848019957542419,
    "pixel_coords": [
      235,
      51
    ]
  },
  {
    "name": "Trail_1240486795",
    "lat": 42.2842669,
    "lon": -87.8648888,
    "osm_id": 1240486795,
    "osm_type": "way",
    "score": 0.6848019957542419,
    "pixel_coords": [
      235,
      51
    ]
  },
  {
    "name": "Trail_1240486796",
    "lat": 42.2842612,
    "lon": -87.8650494,
    "osm_id": 1240486796,
    "osm_type": "way",
    "score": 0.6848019957542419,
    "pixel_coords": [
      235,
      51
    ]
  },
  {
    "name": "Trail_1240486797",
    "lat": 42.2847605,
    "lon": -87.8659345,
    "osm_id": 1240486797,
    "osm_type": "way",
    "score": 0.6848019957542419,
    "pixel_coords": [
      235,
      51
    ]
  },
  {
    "name": "Trail_1240486798",
    "lat": 42.2869024,
    "lon": -87.8674435,
    "osm_id": 1240486798,
    "osm_type": "way",
    "score": 0.6848019957542419,
    "pixel_coords": [
      235,
      51
    ]
  },
  {
    "name": "Trail_1240486799",
    "lat": 42.2868459,
    "lon": -87.8663888,
    "osm_id": 1240486799,
    "osm_type": "way",
    "score": 0.6848019957542419,
    "pixel_coords": [
      235,
      51
    ]
  },
  {
    "name": "Trail_1240486800",
    "lat": 42.2869597,
    "lon": -87.8660218,
    "osm_id": 1240486800,
    "osm_type": "way",
    "score": 0.6848019957542419,
    "pixel_coords": [
      235,
      51
    ]
  },
  {
    "name": "Trail_1240486801",
    "lat": 42.2865019,
    "lon": -87.8637403,
    "osm_id": 1240486801,
    "osm_type": "way",
    "score": 0.6848019957542419,
    "pixel_coords": [
      235,
      51
    ]
  },
  {
    "name": "Trail_1240486803",
    "lat": 42.2850485,
    "lon": -87.8616487,
    "osm_id": 1240486803,
    "osm_type": "way",
    "score": 0.6848019957542419,
    "pixel_coords": [
      235,
      51
    ]
  },
  {
    "name": "Trail_1240486804",
    "lat": 42.2826927,
    "lon": -87.8599816,
    "osm_id": 1240486804,
    "osm_type": "way",
    "score": 0.6848019957542419,
    "pixel_coords": [
      235,
      51
    ]
  },
  {
    "name": "Trail_1240486805",
    "lat": 42.2812414,
    "lon": -87.8623458,
    "osm_id": 1240486805,
    "osm_type": "way",
    "score": 0.6848019957542419,
    "pixel_coords": [
      235,
      51
    ]
  },
  {
    "name": "Trail_1240486806",
    "lat": 42.2827836,
    "lon": -87.8636217,
    "osm_id": 1240486806,
    "osm_type": "way",
    "score": 0.6848019957542419,
    "pixel_coords": [
      235,
      51
    ]
  },
  {
    "name": "Trail_1240486807",
    "lat": 42.2834657,
    "lon": -87.8605055,
    "osm_id": 1240486807,
    "osm_type": "way",
    "score": 0.6848019957542419,
    "pixel_coords": [
      235,
      51
    ]
  },
  {
    "name": "Hiawatha",
    "lat": 46.5893315,
    "lon": -84.2758084,
    "osm_id": 300667184,
    "osm_type": "way",
    "score": 0.6846235394477844,
    "pixel_coords": [
      20,
      214
    ]
  },
  {
    "name": "Crystal",
    "lat": 46.5940009,
    "lon": -84.2730772,
    "osm_id": 369087917,
    "osm_type": "way",
    "score": 0.6846235394477844,
    "pixel_coords": [
      20,
      214
    ]
  },
  {
    "name": "Pinder",
    "lat": 46.5871311,
    "lon": -84.2906024,
    "osm_id": 604024896,
    "osm_type": "way",
    "score": 0.6846235394477844,
    "pixel_coords": [
      20,
      214
    ]
  },
  {
    "name": "White Pine",
    "lat": 46.5876174,
    "lon": -84.2912656,
    "osm_id": 604059091,
    "osm_type": "way",
    "score": 0.6846235394477844,
    "pixel_coords": [
      20,
      214
    ]
  },
  {
    "name": "Kinsmen Lighted",
    "lat": 46.5918675,
    "lon": -84.2794634,
    "osm_id": 604081245,
    "osm_type": "way",
    "score": 0.6846235394477844,
    "pixel_coords": [
      20,
      214
    ]
  },
  {
    "name": "Mockingbird",
    "lat": 46.590388,
    "lon": -84.2864616,
    "osm_id": 998893253,
    "osm_type": "way",
    "score": 0.6846235394477844,
    "pixel_coords": [
      20,
      214
    ]
  },
  {
    "name": "Red Pine",
    "lat": 46.5822566,
    "lon": -84.2881937,
    "osm_id": 998893263,
    "osm_type": "way",
    "score": 0.6846235394477844,
    "pixel_coords": [
      20,
      214
    ]
  },
  {
    "name": "Trail to Red Pine",
    "lat": 46.585685,
    "lon": -84.2808845,
    "osm_id": 998893269,
    "osm_type": "way",
    "score": 0.6846235394477844,
    "pixel_coords": [
      20,
      214
    ]
  },
  {
    "name": "Roadway Crossover",
    "lat": 46.5886,
    "lon": -84.2774078,
    "osm_id": 998893273,
    "osm_type": "way",
    "score": 0.6846235394477844,
    "pixel_coords": [
      20,
      214
    ]
  },
  {
    "name": "Inner Loop Extension",
    "lat": 46.5886683,
    "lon": -84.2729931,
    "osm_id": 999212786,
    "osm_type": "way",
    "score": 0.6846235394477844,
    "pixel_coords": [
      20,
      214
    ]
  },
  {
    "name": "Trail_1009706386",
    "lat": 46.5916861,
    "lon": -84.2830025,
    "osm_id": 1009706386,
    "osm_type": "way",
    "score": 0.6846235394477844,
    "pixel_coords": [
      20,
      214
    ]
  },
  {
    "name": "Ext to Parking Lot",
    "lat": 46.5896153,
    "lon": -84.2820845,
    "osm_id": 1011378652,
    "osm_type": "way",
    "score": 0.6846235394477844,
    "pixel_coords": [
      20,
      214
    ]
  },