[
  {
    "name": "Tahquamenon Falls State Park",
    "lat": 46.5983,
    "lon": -85.2072,
    "score": 0.8997159600257874,
    "pixel_coords": [
      48,
      455
    ]
  },
  {
    "name": "Hartwick Pines State Park",
    "lat": 44.7442,
    "lon": -84.6647,
    "score": 0.8629424571990967,
    "pixel_coords": [
      270,
      520
    ]
  },
  {
    "name": "Hanson Hills Recreation Area",
    "lat": 44.6553,
    "lon": -84.7372,
    "score": 0.7830327153205872,
    "pixel_coords": [
      281,
      511
    ]
  },
  {
    "name": "Cross Country Ski Headquarters (Roscommon)",
    "lat": 44.5031,
    "lon": -84.5917,
    "score": 0.6903160214424133,
    "pixel_coords": [
      299,
      528
    ]
  },
  {
    "name": "Lapham Peak State Park",
    "lat": 43.0408,
    "lon": -88.3978,
    "score": 0.4450165033340454,
    "pixel_coords": [
      475,
      72
    ]
  },
  {
    "name": "Kettle Moraine State Forest",
    "lat": 43.0036,
    "lon": -88.1467,
    "score": 0.4322122633457184,
    "pixel_coords": [
      479,
      102
    ]
  },
  {
    "name": "Bald Mountain Recreation Area",
    "lat": 42.7958,
    "lon": -83.1961,
    "score": 0.429320752620697,
    "pixel_coords": [
      504,
      696
    ]
  },
  {
    "name": "Sleepy Hollow State Park",
    "lat": 42.9089,
    "lon": -84.4233,
    "score": 0.42261162400245667,
    "pixel_coords": [
      490,
      549
    ]
  },
  {
    "name": "Indian Springs Metropark",
    "lat": 42.6514,
    "lon": -83.5028,
    "score": 0.41843414306640625,
    "pixel_coords": [
      521,
      659
    ]
  },
  {
    "name": "Proud Lake Recreation Area",
    "lat": 42.5583,
    "lon": -83.5553,
    "score": 0.41599521040916443,
    "pixel_coords": [
      533,
      653
    ]
  },
  {
    "name": "Stony Creek Metropark",
    "lat": 42.7377,
    "lon": -83.0583,
    "score": 0.4105495512485504,
    "pixel_coords": [
      511,
      713
    ]
  },
  {
    "name": "Pinckney Recreation Area",
    "lat": 42.4214,
    "lon": -84.0461,
    "score": 0.4004018008708954,
    "pixel_coords": [
      549,
      594
    ]
  },
  {
    "name": "Kensington Metropark",
    "lat": 42.5303,
    "lon": -83.6581,
    "score": 0.38424134254455566,
    "pixel_coords": [
      536,
      641
    ]
  },
  {
    "name": "Cuyahoga Valley National Park",
    "lat": 41.2808,
    "lon": -81.5678,
    "score": 0.3833996057510376,
    "pixel_coords": [
      686,
      891
    ]
  },
  {
    "name": "Chain O'Lakes State Park",
    "lat": 41.3269,
    "lon": -85.5217,
    "score": 0.3823178708553314,
    "pixel_coords": [
      680,
      417
    ]
  },
  {
    "name": "Potato Creek State Park",
    "lat": 41.5456,
    "lon": -86.3564,
    "score": 0.38180333375930786,
    "pixel_coords": [
      654,
      317
    ]
  },
  {
    "name": "Findley State Park",
    "lat": 41.1203,
    "lon": -82.2311,
    "score": 0.37593990564346313,
    "pixel_coords": [
      705,
      812
    ]
  },
  {
    "name": "Pokagon State Park",
    "lat": 41.7078,
    "lon": -85.0178,
    "score": 0.3713613450527191,
    "pixel_coords": [
      635,
      477
    ]
  },
  {
    "name": "Mohican State Park",
    "lat": 40.6117,
    "lon": -82.3111,
    "score": 0.3680972158908844,
    "pixel_coords": [
      766,
      802
    ]
  },
  {
    "name": "Indiana Dunes National Park",
    "lat": 41.6533,
    "lon": -87.0522,
    "score": 0.36421191692352295,
    "pixel_coords": [
      641,
      233
    ]
  },
  {
    "name": "Starved Rock State Park",
    "lat": 41.3197,
    "lon": -88.9942,
    "score": 0.3596676290035248,
    "pixel_coords": [
      681,
      0
    ]
  },
  {
    "name": "Salt Fork State Park",
    "lat": 40.1172,
    "lon": -81.5067,
    "score": 0.31926214694976807,
    "pixel_coords": [
      825,
      899
    ]
  },
  {
    "name": "Big Bone Lick State Park",
    "lat": 38.8828,
    "lon": -84.7528,
    "score": 0.26720768213272095,
    "pixel_coords": [
      974,
      509
    ]
  }
]